latitutde, longitude, altitude, pitch, roll, yaw, time
0.0,0.0,8.25,-0.00550625380129,0.0207131393254,-1.5432600975, 1520107268.24
0.0,0.0,8.23,-0.00715192314237,0.0213857702911,-1.54499900341, 1520107268.29
0.0,0.0,8.23,-0.00715192314237,0.0213857702911,-1.54499900341, 1520107268.34
0.0,0.0,8.23,-0.00715192314237,0.0213857702911,-1.54499900341, 1520107268.39
0.0,0.0,8.23,-0.00715192314237,0.0213857702911,-1.54499900341, 1520107268.45
0.0,0.0,8.23,-0.00715192314237,0.0213857702911,-1.54499900341, 1520107268.5
0.0,0.0,8.23,-0.00715192314237,0.0213857702911,-1.54499900341, 1520107268.56
0.0,0.0,8.23,-0.00715192314237,0.0213857702911,-1.54499900341, 1520107268.61
0.0,0.0,8.23,-0.00715192314237,0.0213857702911,-1.54499900341, 1520107268.66
0.0,0.0,8.23,-0.00715192314237,0.0213857702911,-1.54499900341, 1520107268.71
0.0,0.0,8.23,-0.00715192314237,0.0213857702911,-1.54499900341, 1520107268.77
0.0,0.0,8.23,-0.00715192314237,0.0213857702911,-1.54499900341, 1520107268.82
0.0,0.0,8.23,-0.00715192314237,0.0213857702911,-1.54499900341, 1520107268.87
0.0,0.0,8.23,-0.00715192314237,0.0213857702911,-1.54499900341, 1520107268.92
0.0,0.0,8.23,-0.00715192314237,0.0213857702911,-1.54499900341, 1520107268.97
0.0,0.0,8.23,-0.00715192314237,0.0213857702911,-1.54499900341, 1520107269.03
0.0,0.0,8.23,-0.00715192314237,0.0213857702911,-1.54499900341, 1520107269.08
0.0,0.0,8.23,-0.00715192314237,0.0213857702911,-1.54499900341, 1520107269.14
0.0,0.0,8.23,-0.00715192314237,0.0213857702911,-1.54499900341, 1520107269.19
0.0,0.0,8.23,-0.00715192314237,0.0213857702911,-1.54499900341, 1520107269.24
0.0,0.0,8.23,-0.00715192314237,0.0213857702911,-1.54499900341, 1520107269.29
0.0,0.0,8.23,-0.00715192314237,0.0213857702911,-1.54499900341, 1520107269.35
0.0,0.0,8.23,-0.00715192314237,0.0213857702911,-1.54499900341, 1520107269.4
0.0,0.0,8.23,-0.00715192314237,0.0213857702911,-1.54499900341, 1520107269.45
0.0,0.0,8.23,-0.00715192314237,0.0213857702911,-1.54499900341, 1520107269.51
0.0,0.0,8.23,-0.00715192314237,0.0213857702911,-1.54499900341, 1520107269.56
0.0,0.0,8.23,-0.00715192314237,0.0213857702911,-1.54499900341, 1520107269.62
0.0,0.0,8.23,-0.00715192314237,0.0213857702911,-1.54499900341, 1520107269.67
0.0,0.0,8.23,-0.00715192314237,0.0213857702911,-1.54499900341, 1520107269.72
0.0,0.0,8.23,-0.00715192314237,0.0213857702911,-1.54499900341, 1520107269.77
0.0,0.0,8.23,-0.00715192314237,0.0213857702911,-1.54499900341, 1520107269.83
0.0,0.0,8.23,-0.00715192314237,0.0213857702911,-1.54499900341, 1520107269.88
0.0,0.0,8.23,-0.00715192314237,0.0213857702911,-1.54499900341, 1520107269.93
0.0,0.0,8.23,-0.00715192314237,0.0213857702911,-1.54499900341, 1520107269.98
0.0,0.0,8.23,-0.00715192314237,0.0213857702911,-1.54499900341, 1520107270.04
0.0,0.0,8.23,-0.00715192314237,0.0213857702911,-1.54499900341, 1520107270.09
0.0,0.0,8.23,-0.00715192314237,0.0213857702911,-1.54499900341, 1520107270.15
0.0,0.0,8.23,-0.00715192314237,0.0213857702911,-1.54499900341, 1520107270.2
0.0,0.0,8.23,-0.00715192314237,0.0213857702911,-1.54499900341, 1520107270.25
0.0,0.0,8.23,-0.00715192314237,0.0213857702911,-1.54499900341, 1520107270.31
0.0,0.0,8.23,-0.00715192314237,0.0213857702911,-1.54499900341, 1520107270.36
0.0,0.0,8.23,-0.00715192314237,0.0213857702911,-1.54499900341, 1520107270.41
0.0,0.0,8.23,-0.00715192314237,0.0213857702911,-1.54499900341, 1520107270.47
0.0,0.0,8.23,-0.00715192314237,0.0213857702911,-1.54499900341, 1520107270.52
0.0,0.0,8.23,-0.00698265945539,0.0253210254014,-1.5458946228, 1520107270.57
0.0,0.0,8.23,-0.00698265945539,0.0253210254014,-1.5458946228, 1520107270.62
0.0,0.0,8.22,-0.00698265945539,0.0253210254014,-1.5458946228, 1520107270.67
0.0,0.0,8.22,-0.00698265945539,0.0253210254014,-1.5458946228, 1520107270.72
0.0,0.0,8.22,-0.00698265945539,0.0253210254014,-1.5458946228, 1520107270.78
0.0,0.0,8.19,-0.00691471295431,0.0369311757386,-1.54831552505, 1520107270.83
0.0,0.0,8.19,-0.00691471295431,0.0369311757386,-1.54831552505, 1520107270.88
0.0,0.0,8.19,-0.00691471295431,0.0369311757386,-1.54831552505, 1520107270.93
0.0,0.0,8.19,-0.00691471295431,0.0369311757386,-1.54831552505, 1520107270.98
0.0,0.0,8.19,-0.00674255983904,0.0436412207782,-1.5493080616, 1520107271.04
0.0,0.0,8.19,-0.00674255983904,0.0436412207782,-1.5493080616, 1520107271.09
0.0,0.0,8.19,-0.00674255983904,0.0436412207782,-1.5493080616, 1520107271.14
0.0,0.0,8.19,-0.00674255983904,0.0436412207782,-1.5493080616, 1520107271.19
0.0,0.0,8.19,-0.00674255983904,0.0436412207782,-1.5493080616, 1520107271.25
0.0,0.0,8.15,-0.00637404434383,0.0528371371329,-1.5513021946, 1520107271.3
0.0,0.0,8.15,-0.00637404434383,0.0528371371329,-1.5513021946, 1520107271.35
0.0,0.0,8.15,-0.00637404434383,0.0528371371329,-1.5513021946, 1520107271.4
0.0,0.0,8.15,-0.00637404434383,0.0528371371329,-1.5513021946, 1520107271.45
0.0,0.0,8.15,-0.00637404434383,0.0528371371329,-1.5513021946, 1520107271.51
0.0,0.0,8.15,-0.00632091984153,0.058193154633,-1.5521914959, 1520107271.56
0.0,0.0,8.15,-0.00632091984153,0.058193154633,-1.5521914959, 1520107271.61
0.0,0.0,8.15,-0.00632091984153,0.058193154633,-1.5521914959, 1520107271.66
0.0,0.0,8.12,-0.00632091984153,0.058193154633,-1.5521914959, 1520107271.72
0.0,0.0,8.12,-0.00632091984153,0.058193154633,-1.5521914959, 1520107271.77
0.0,0.0,8.12,-0.00632091984153,0.058193154633,-1.5521914959, 1520107271.82
0.0,0.0,8.12,-0.00660949060693,0.064349912107,-1.55384922028, 1520107271.88
0.0,0.0,8.12,-0.00660949060693,0.064349912107,-1.55384922028, 1520107271.93
0.0,0.0,8.1,-0.00660949060693,0.064349912107,-1.55384922028, 1520107271.98
0.0,0.0,8.1,-0.00660949060693,0.064349912107,-1.55384922028, 1520107272.04
0.0,0.0,8.1,-0.00691640470177,0.0701681002975,-1.5547772646, 1520107272.09
0.0,0.0,8.1,-0.00691640470177,0.0701681002975,-1.5547772646, 1520107272.14
0.0,0.0,8.1,-0.00691640470177,0.0701681002975,-1.5547772646, 1520107272.19
0.0,0.0,8.1,-0.00691640470177,0.0701681002975,-1.5547772646, 1520107272.25
0.0,0.0,8.1,-0.00691640470177,0.0701681002975,-1.5547772646, 1520107272.3
0.0,0.0,8.08,-0.00691640470177,0.0701681002975,-1.5547772646, 1520107272.35
0.0,0.0,8.08,-0.00632629357278,0.0737899467349,-1.55566287041, 1520107272.4
0.0,0.0,8.06,-0.00632629357278,0.0737899467349,-1.55566287041, 1520107272.46
0.0,0.0,8.06,-0.00632629357278,0.0737899467349,-1.55566287041, 1520107272.51
0.0,0.0,8.06,-0.00627571297809,0.0781346932054,-1.55665624142, 1520107272.56
0.0,0.0,8.06,-0.00627571297809,0.0781346932054,-1.55665624142, 1520107272.62
0.0,0.0,8.06,-0.00627571297809,0.0781346932054,-1.55665624142, 1520107272.67
0.0,0.0,8.04,-0.00627571297809,0.0781346932054,-1.55665624142, 1520107272.72
0.0,0.0,8.04,-0.00627571297809,0.0781346932054,-1.55665624142, 1520107272.78
0.0,0.0,8.04,-0.00627571297809,0.0781346932054,-1.55665624142, 1520107272.83
0.0,0.0,8.04,-0.00622364599258,0.0806167945266,-1.55706548691, 1520107272.88
0.0,0.0,8.04,-0.00622364599258,0.0806167945266,-1.55706548691, 1520107272.93
0.0,0.0,8.02,-0.00622364599258,0.0806167945266,-1.55706548691, 1520107272.99
0.0,0.0,8.02,-0.00622364599258,0.0806167945266,-1.55706548691, 1520107273.04
0.0,0.0,8.02,-0.00651173852384,0.0829783156514,-1.55808722973, 1520107273.09
0.0,0.0,8.02,-0.00651173852384,0.0829783156514,-1.55808722973, 1520107273.14
0.0,0.0,8.02,-0.00651173852384,0.0829783156514,-1.55808722973, 1520107273.2
0.0,0.0,8.02,-0.00651173852384,0.0829783156514,-1.55808722973, 1520107273.25
0.0,0.0,8.02,-0.00651173852384,0.0829783156514,-1.55808722973, 1520107273.3
0.0,0.0,8.02,-0.00651173852384,0.0829783156514,-1.55808722973, 1520107273.35
0.0,0.0,8.01,-0.00749896280468,0.0837438777089,-1.55772554874, 1520107273.41
0.0,0.0,7.99,-0.00749896280468,0.0837438777089,-1.55772554874, 1520107273.46
0.0,0.0,7.99,-0.00749896280468,0.0837438777089,-1.55772554874, 1520107273.51
0.0,0.0,7.99,-0.00819569919258,0.086640201509,-1.55814421177, 1520107273.56
0.0,0.0,7.99,-0.00819569919258,0.086640201509,-1.55814421177, 1520107273.62
0.0,0.0,7.98,-0.00819569919258,0.086640201509,-1.55814421177, 1520107273.67
0.0,0.0,7.98,-0.00819569919258,0.086640201509,-1.55814421177, 1520107273.72
0.0,0.0,7.98,-0.00819569919258,0.086640201509,-1.55814421177, 1520107273.77
0.0,0.0,7.98,-0.00819569919258,0.086640201509,-1.55814421177, 1520107273.83
0.0,0.0,7.98,-0.00896537769586,0.0844368338585,-1.55748999119, 1520107273.88
0.0,0.0,7.98,-0.00896537769586,0.0844368338585,-1.55748999119, 1520107273.93
0.0,0.0,7.97,-0.00896537769586,0.0844368338585,-1.55748999119, 1520107273.98
0.0,0.0,7.97,-0.00896537769586,0.0844368338585,-1.55748999119, 1520107274.03
0.0,0.0,7.97,-0.00896537769586,0.0844368338585,-1.55748999119, 1520107274.09
0.0,0.0,7.97,-0.00896537769586,0.0844368338585,-1.55748999119, 1520107274.14
0.0,0.0,7.98,-0.00825159810483,0.0410898625851,-1.55977535248, 1520107274.19
0.0,0.0,7.98,-0.00825159810483,0.0410898625851,-1.55977535248, 1520107274.25
0.0,0.0,7.98,-0.00825159810483,0.0410898625851,-1.55977535248, 1520107274.3
0.0,0.0,7.98,-0.00825159810483,0.0410898625851,-1.55977535248, 1520107274.35
0.0,0.0,7.98,-0.00825159810483,0.0410898625851,-1.55977535248, 1520107274.4
0.0,0.0,7.98,-0.00825159810483,0.0410898625851,-1.55977535248, 1520107274.46
0.0,0.0,7.97,-0.00825159810483,0.0410898625851,-1.55977535248, 1520107274.51
0.0,0.0,7.97,-0.00825159810483,0.0410898625851,-1.55977535248, 1520107274.56
0.0,0.0,7.97,-0.00825159810483,0.0410898625851,-1.55977535248, 1520107274.61
0.0,0.0,7.97,-0.00825159810483,0.0410898625851,-1.55977535248, 1520107274.67
0.0,0.0,7.97,-0.00898529402912,0.0264494419098,-1.56558310986, 1520107274.72
0.0,0.0,7.97,-0.00898529402912,0.0264494419098,-1.56558310986, 1520107274.77
0.0,0.0,7.97,-0.00898529402912,0.0264494419098,-1.56558310986, 1520107274.82
0.0,0.0,7.97,-0.00898529402912,0.0264494419098,-1.56558310986, 1520107274.88
0.0,0.0,7.97,-0.010774647817,0.0801224261522,-1.56414413452, 1520107274.93
0.0,0.0,7.97,-0.010774647817,0.0801224261522,-1.56414413452, 1520107274.99
0.0,0.0,7.95,-0.010774647817,0.0801224261522,-1.56414413452, 1520107275.04
0.0,0.0,7.95,-0.010774647817,0.0801224261522,-1.56414413452, 1520107275.09
0.0,0.0,7.95,-0.010774647817,0.0801224261522,-1.56414413452, 1520107275.14
0.0,0.0,7.95,-0.010774647817,0.0801224261522,-1.56414413452, 1520107275.19
0.0,0.0,7.97,-0.0116949593648,0.0817812159657,-1.56296229362, 1520107275.25
0.0,0.0,7.97,-0.0116949593648,0.0817812159657,-1.56296229362, 1520107275.3
0.0,0.0,7.97,-0.0116949593648,0.0817812159657,-1.56296229362, 1520107275.36
0.0,0.0,7.97,-0.0116949593648,0.0817812159657,-1.56296229362, 1520107275.41
0.0,0.0,7.97,-0.0116949593648,0.0817812159657,-1.56296229362, 1520107275.47
0.0,0.0,7.96,-0.0114448815584,0.0741029977798,-1.56402242184, 1520107275.52
0.0,0.0,7.96,-0.0114448815584,0.0741029977798,-1.56402242184, 1520107275.57
0.0,0.0,7.96,-0.0114448815584,0.0741029977798,-1.56402242184, 1520107275.63
0.0,0.0,7.96,-0.0114448815584,0.0741029977798,-1.56402242184, 1520107275.68
0.0,0.0,7.99,-0.00297702150419,0.016116771847,-1.58080232143, 1520107275.73
0.0,0.0,7.99,-0.00297702150419,0.016116771847,-1.58080232143, 1520107275.78
0.0,0.0,7.99,-0.00297702150419,0.016116771847,-1.58080232143, 1520107275.84
0.0,0.0,7.99,-0.00297702150419,0.016116771847,-1.58080232143, 1520107275.89
0.0,0.0,7.99,0.0225757379085,0.0676111280918,-1.56953191757, 1520107275.94
0.0,0.0,7.99,0.0225757379085,0.0676111280918,-1.56953191757, 1520107275.99
0.0,0.0,8.0,0.0225757379085,0.0676111280918,-1.56953191757, 1520107276.05
0.0,0.0,8.0,0.0225757379085,0.0676111280918,-1.56953191757, 1520107276.1
0.0,0.0,8.0,0.0225757379085,0.0676111280918,-1.56953191757, 1520107276.15
0.0,0.0,8.0,0.0225757379085,0.0676111280918,-1.56953191757, 1520107276.21
0.0,0.0,8.0,0.0212613269687,0.093935765326,-1.56668317318, 1520107276.26
0.0,0.0,8.0,0.0212613269687,0.093935765326,-1.56668317318, 1520107276.31
0.0,0.0,8.0,0.0212613269687,0.093935765326,-1.56668317318, 1520107276.36
0.0,0.0,8.0,0.0212613269687,0.093935765326,-1.56668317318, 1520107276.41
0.0,0.0,8.0,0.0212613269687,0.093935765326,-1.56668317318, 1520107276.47
0.0,0.0,8.03,0.014318248257,0.0993364974856,-1.56558632851, 1520107276.52
0.0,0.0,8.06,0.014318248257,0.0993364974856,-1.56558632851, 1520107276.57
0.0,0.0,8.06,0.014318248257,0.0993364974856,-1.56558632851, 1520107276.62
0.0,0.0,8.06,0.014318248257,0.0993364974856,-1.56558632851, 1520107276.67
0.0,0.0,8.06,0.014318248257,0.0993364974856,-1.56558632851, 1520107276.73
0.0,0.0,8.1,-0.000421757809818,0.0944153741002,-1.56284022331, 1520107276.78
0.0,0.0,8.1,-0.000421757809818,0.0944153741002,-1.56284022331, 1520107276.83
0.0,0.0,8.1,-0.000421757809818,0.0944153741002,-1.56284022331, 1520107276.89
0.0,0.0,8.1,-0.0170744173229,0.0921164751053,-1.56363129616, 1520107276.94
0.0,0.0,8.1,-0.0170744173229,0.0921164751053,-1.56363129616, 1520107276.99
0.0,0.0,8.15,-0.0170744173229,0.0921164751053,-1.56363129616, 1520107277.05
0.0,0.0,8.15,-0.0170744173229,0.0921164751053,-1.56363129616, 1520107277.1
0.0,0.0,8.15,-0.0170744173229,0.0921164751053,-1.56363129616, 1520107277.15
0.0,0.0,8.15,-0.0170744173229,0.0921164751053,-1.56363129616, 1520107277.21
0.0,0.0,8.22,-0.0218361485749,0.107717335224,-1.56373798847, 1520107277.26
0.0,0.0,8.22,-0.0218361485749,0.107717335224,-1.56373798847, 1520107277.31
0.0,0.0,8.22,-0.0218361485749,0.107717335224,-1.56373798847, 1520107277.36
0.0,0.0,8.22,-0.0218361485749,0.107717335224,-1.56373798847, 1520107277.42
0.0,0.0,8.22,-0.0218361485749,0.107717335224,-1.56373798847, 1520107277.47
0.0,0.0,8.22,-0.0218361485749,0.107717335224,-1.56373798847, 1520107277.52
0.0,0.0,8.24,-0.0311152972281,0.108837127686,-1.56230676174, 1520107277.57
0.0,0.0,8.24,-0.0311152972281,0.108837127686,-1.56230676174, 1520107277.62
0.0,0.0,8.24,-0.0311152972281,0.108837127686,-1.56230676174, 1520107277.68
0.0,0.0,8.24,-0.0311152972281,0.108837127686,-1.56230676174, 1520107277.73
0.0,0.0,8.23,-0.0385219566524,0.0990518555045,-1.56046116352, 1520107277.78
0.0,0.0,8.23,-0.0385219566524,0.0990518555045,-1.56046116352, 1520107277.83
0.0,0.0,8.23,-0.0385219566524,0.0990518555045,-1.56046116352, 1520107277.88
0.0,0.0,8.23,-0.0385219566524,0.0990518555045,-1.56046116352, 1520107277.93
0.0,0.0,8.23,-0.044170524925,0.0979632362723,-1.56051445007, 1520107277.99
0.0,0.0,8.23,-0.044170524925,0.0979632362723,-1.56051445007, 1520107278.04
0.0,0.0,8.01,-0.044170524925,0.0979632362723,-1.56051445007, 1520107278.09
0.0,0.0,8.01,-0.044170524925,0.0979632362723,-1.56051445007, 1520107278.14
0.0,0.0,8.01,-0.044170524925,0.0979632362723,-1.56051445007, 1520107278.2
0.0,0.0,8.01,-0.044170524925,0.0979632362723,-1.56051445007, 1520107278.25
0.0,0.0,7.67,-0.0392179004848,0.112063720822,-1.55962312222, 1520107278.3
0.0,0.0,7.67,-0.0392179004848,0.112063720822,-1.55962312222, 1520107278.36
0.0,0.0,7.67,-0.0392179004848,0.112063720822,-1.55962312222, 1520107278.41
0.0,0.0,7.67,-0.0392179004848,0.112063720822,-1.55962312222, 1520107278.46
0.0,0.0,7.67,-0.0392179004848,0.112063720822,-1.55962312222, 1520107278.51
0.0,0.0,7.67,-0.0392179004848,0.112063720822,-1.55962312222, 1520107278.57
0.0,0.0,7.67,-0.0392179004848,0.112063720822,-1.55962312222, 1520107278.62
0.0,0.0,7.53,-0.0357413813472,0.131342574954,-1.56129992008, 1520107278.67
0.0,0.0,7.53,-0.0357413813472,0.131342574954,-1.56129992008, 1520107278.72
0.0,0.0,7.61,-0.0391786172986,0.10476693511,-1.56292188168, 1520107278.78
0.0,0.0,7.61,-0.0391786172986,0.10476693511,-1.56292188168, 1520107278.83
0.0,0.0,7.61,-0.0391786172986,0.10476693511,-1.56292188168, 1520107278.88
0.0,0.0,7.61,-0.0391786172986,0.10476693511,-1.56292188168, 1520107278.94
0.0,0.0,7.61,-0.0391786172986,0.10476693511,-1.56292188168, 1520107278.99
0.0,0.0,7.61,-0.0391786172986,0.10476693511,-1.56292188168, 1520107279.05
0.0,0.0,7.76,-0.0389203950763,0.111591525376,-1.56336891651, 1520107279.1
0.0,0.0,7.76,-0.0389203950763,0.111591525376,-1.56336891651, 1520107279.15
0.0,0.0,7.76,-0.0389203950763,0.111591525376,-1.56336891651, 1520107279.2
0.0,0.0,7.76,-0.0389203950763,0.111591525376,-1.56336891651, 1520107279.26
0.0,0.0,7.76,-0.0283865239471,0.17010872066,-1.56277906895, 1520107279.31
0.0,0.0,7.9,-0.0283865239471,0.17010872066,-1.56277906895, 1520107279.36
0.0,0.0,7.9,-0.0283865239471,0.17010872066,-1.56277906895, 1520107279.41
0.0,0.0,7.9,-0.0283865239471,0.17010872066,-1.56277906895, 1520107279.47
0.0,0.0,7.9,-0.0283865239471,0.17010872066,-1.56277906895, 1520107279.52
0.0,0.0,7.9,-0.0283865239471,0.17010872066,-1.56277906895, 1520107279.57
0.0,0.0,7.9,-0.0283865239471,0.17010872066,-1.56277906895, 1520107279.62
0.0,0.0,7.9,-0.0283865239471,0.17010872066,-1.56277906895, 1520107279.68
0.0,0.0,7.9,-0.0283865239471,0.17010872066,-1.56277906895, 1520107279.73
0.0,0.0,7.9,-0.00161196244881,0.0813524350524,-1.56224393845, 1520107279.78
0.0,0.0,7.9,-0.00161196244881,0.0813524350524,-1.56224393845, 1520107279.83
0.0,0.0,7.99,-0.00161196244881,0.0813524350524,-1.56224393845, 1520107279.88
0.0,0.0,7.99,-0.00161196244881,0.0813524350524,-1.56224393845, 1520107279.94
0.0,0.0,7.99,-0.00161196244881,0.0813524350524,-1.56224393845, 1520107279.99
0.0,0.0,7.99,-0.00161196244881,0.0813524350524,-1.56224393845, 1520107280.04
0.0,0.0,8.03,-0.00404587946832,0.0650871992111,-1.56153261662, 1520107280.09
0.0,0.0,8.03,-0.00404587946832,0.0650871992111,-1.56153261662, 1520107280.14
0.0,0.0,8.03,-0.00404587946832,0.0650871992111,-1.56153261662, 1520107280.2
0.0,0.0,8.03,-0.00404587946832,0.0650871992111,-1.56153261662, 1520107280.25
0.0,0.0,8.03,-0.00404587946832,0.0650871992111,-1.56153261662, 1520107280.3
0.0,0.0,8.03,-0.00404587946832,0.0650871992111,-1.56153261662, 1520107280.36
0.0,0.0,8.11,-0.0154805406928,0.10222222656,-1.56162750721, 1520107280.41
0.0,0.0,8.11,-0.0154805406928,0.10222222656,-1.56162750721, 1520107280.46
0.0,0.0,8.11,-0.0154805406928,0.10222222656,-1.56162750721, 1520107280.51
0.0,0.0,8.11,-0.0154805406928,0.10222222656,-1.56162750721, 1520107280.57
0.0,0.0,8.11,-0.0154805406928,0.10222222656,-1.56162750721, 1520107280.62
0.0,0.0,8.11,-0.0154805406928,0.10222222656,-1.56162750721, 1520107280.67
0.0,0.0,8.11,-0.0154805406928,0.10222222656,-1.56162750721, 1520107280.72
0.0,0.0,8.11,-0.0154805406928,0.10222222656,-1.56162750721, 1520107280.77
0.0,0.0,8.11,-0.0154805406928,0.10222222656,-1.56162750721, 1520107280.82
0.0,0.0,8.11,-0.0154805406928,0.10222222656,-1.56162750721, 1520107280.88
0.0,0.0,8.37,-0.00851210113615,0.0982204601169,-1.56264352798, 1520107280.93
0.0,0.0,8.37,-0.00851210113615,0.0982204601169,-1.56264352798, 1520107280.98
0.0,0.0,8.37,-0.00851210113615,0.0982204601169,-1.56264352798, 1520107281.03
0.0,0.0,8.37,-0.00851210113615,0.0982204601169,-1.56264352798, 1520107281.08
0.0,0.0,8.37,-0.00851210113615,0.0982204601169,-1.56264352798, 1520107281.14
0.0,0.0,8.37,-0.00851210113615,0.0982204601169,-1.56264352798, 1520107281.19
0.0,0.0,8.54,-0.00352870905772,0.0707330480218,-1.5623704195, 1520107281.24
0.0,0.0,8.54,-0.00352870905772,0.0707330480218,-1.5623704195, 1520107281.29
0.0,0.0,8.54,-0.00352870905772,0.0707330480218,-1.5623704195, 1520107281.35
0.0,0.0,8.54,-0.00352870905772,0.0707330480218,-1.5623704195, 1520107281.4
0.0,0.0,8.7,-0.0010648900643,0.0707117393613,-1.56088829041, 1520107281.45
0.0,0.0,8.7,-0.0010648900643,0.0707117393613,-1.56088829041, 1520107281.51
0.0,0.0,8.7,-0.0010648900643,0.0707117393613,-1.56088829041, 1520107281.56
0.0,0.0,8.7,-0.0010648900643,0.0707117393613,-1.56088829041, 1520107281.61
0.0,0.0,8.7,-0.0010648900643,0.0707117393613,-1.56088829041, 1520107281.66
0.0,0.0,8.7,-0.0010648900643,0.0707117393613,-1.56088829041, 1520107281.71
0.0,0.0,8.7,-0.0010648900643,0.0707117393613,-1.56088829041, 1520107281.77
0.0,0.0,8.84,-0.00303770927712,0.0630938410759,-1.56005334854, 1520107281.82
0.0,0.0,8.84,-0.00303770927712,0.0630938410759,-1.56005334854, 1520107281.87
0.0,0.0,9.02,-0.005172486417,0.0482311993837,-1.56094419956, 1520107281.92
0.0,0.0,9.02,-0.005172486417,0.0482311993837,-1.56094419956, 1520107281.97
0.0,0.0,9.02,-0.005172486417,0.0482311993837,-1.56094419956, 1520107282.03
0.0,0.0,9.02,-0.005172486417,0.0482311993837,-1.56094419956, 1520107282.08
0.0,0.0,9.02,-0.005172486417,0.0482311993837,-1.56094419956, 1520107282.13
0.0,0.0,9.02,-0.005172486417,0.0482311993837,-1.56094419956, 1520107282.18
0.0,0.0,9.14,-0.00284133525565,0.0445040613413,-1.56021821499, 1520107282.23
0.0,0.0,9.14,-0.00284133525565,0.0445040613413,-1.56021821499, 1520107282.29
0.0,0.0,9.14,-0.00284133525565,0.0445040613413,-1.56021821499, 1520107282.34
0.0,0.0,9.14,-0.00284133525565,0.0445040613413,-1.56021821499, 1520107282.39
0.0,0.0,9.14,-0.00284133525565,0.0445040613413,-1.56021821499, 1520107282.44
0.0,0.0,9.29,-0.00157420570031,0.0444122478366,-1.56113219261, 1520107282.49
0.0,0.0,9.29,-0.00157420570031,0.0444122478366,-1.56113219261, 1520107282.54
0.0,0.0,9.29,-0.00157420570031,0.0444122478366,-1.56113219261, 1520107282.6
0.0,0.0,9.29,-0.00157420570031,0.0444122478366,-1.56113219261, 1520107282.65
0.0,0.0,9.29,-0.00157420570031,0.0444122478366,-1.56113219261, 1520107282.7
0.0,0.0,9.29,-0.00157420570031,0.0444122478366,-1.56113219261, 1520107282.76
0.0,0.0,9.29,-0.00157420570031,0.0444122478366,-1.56113219261, 1520107282.81
0.0,0.0,9.29,-0.00157420570031,0.0444122478366,-1.56113219261, 1520107282.86
0.0,0.0,9.29,-0.00157420570031,0.0444122478366,-1.56113219261, 1520107282.92
0.0,0.0,9.29,-0.00157420570031,0.0444122478366,-1.56113219261, 1520107282.97
0.0,0.0,9.55,0.000575320795178,0.0178407095373,-1.56310474873, 1520107283.03
0.0,0.0,9.55,0.000575320795178,0.0178407095373,-1.56310474873, 1520107283.08
0.0,0.0,9.55,0.000575320795178,0.0178407095373,-1.56310474873, 1520107283.13
0.0,0.0,9.55,0.000575320795178,0.0178407095373,-1.56310474873, 1520107283.18
0.0,0.0,9.65,-0.00095651159063,0.014055069536,-1.56309592724, 1520107283.24
0.0,0.0,9.65,-0.00095651159063,0.014055069536,-1.56309592724, 1520107283.29
0.0,0.0,9.65,-0.00095651159063,0.014055069536,-1.56309592724, 1520107283.34
0.0,0.0,9.65,-0.00095651159063,0.014055069536,-1.56309592724, 1520107283.39
0.0,0.0,9.65,-0.00095651159063,0.014055069536,-1.56309592724, 1520107283.45
0.0,0.0,9.76,0.00287563633174,0.00163655215874,-1.56354892254, 1520107283.5
0.0,0.0,9.76,0.00287563633174,0.00163655215874,-1.56354892254, 1520107283.56
0.0,0.0,9.76,0.00287563633174,0.00163655215874,-1.56354892254, 1520107283.61
0.0,0.0,9.76,0.00287563633174,0.00163655215874,-1.56354892254, 1520107283.66
0.0,0.0,9.76,0.00287563633174,0.00163655215874,-1.56354892254, 1520107283.71
0.0,0.0,9.76,0.00287563633174,0.00163655215874,-1.56354892254, 1520107283.76
0.0,0.0,9.76,0.00287563633174,0.00163655215874,-1.56354892254, 1520107283.81
0.0,0.0,9.76,0.00287563633174,0.00163655215874,-1.56354892254, 1520107283.87
0.0,0.0,9.86,0.00935027189553,-0.00275260023773,-1.56228411198, 1520107283.92
0.0,0.0,9.86,0.00935027189553,-0.00275260023773,-1.56228411198, 1520107283.98
0.0,0.0,9.86,0.00935027189553,-0.00275260023773,-1.56228411198, 1520107284.03
0.0,0.0,9.94,0.0155358090997,-0.00289801415056,-1.56266403198, 1520107284.08
0.0,0.0,9.94,0.0155358090997,-0.00289801415056,-1.56266403198, 1520107284.13
0.0,0.0,9.94,0.0155358090997,-0.00289801415056,-1.56266403198, 1520107284.18
0.0,0.0,9.94,0.0155358090997,-0.00289801415056,-1.56266403198, 1520107284.23
0.0,0.0,9.94,0.0177492257208,0.000236924737692,-1.56284558773, 1520107284.29
0.0,0.0,9.96,0.0177492257208,0.000236924737692,-1.56284558773, 1520107284.34
0.0,0.0,9.96,0.0177492257208,0.000236924737692,-1.56284558773, 1520107284.39
0.0,0.0,9.96,0.0177492257208,0.000236924737692,-1.56284558773, 1520107284.44
0.0,0.0,9.96,0.0177492257208,0.000236924737692,-1.56284558773, 1520107284.49
0.0,0.0,9.97,0.00969552993774,-0.00311901513487,-1.56279408932, 1520107284.55
0.0,0.0,9.97,0.00969552993774,-0.00311901513487,-1.56279408932, 1520107284.6
0.0,0.0,9.97,0.00969552993774,-0.00311901513487,-1.56279408932, 1520107284.65
0.0,0.0,9.97,0.00969552993774,-0.00311901513487,-1.56279408932, 1520107284.7
0.0,0.0,9.97,0.00969552993774,-0.00311901513487,-1.56279408932, 1520107284.76
0.0,0.0,9.97,0.00969552993774,-0.00311901513487,-1.56279408932, 1520107284.81
0.0,0.0,9.97,0.00969552993774,-0.00311901513487,-1.56279408932, 1520107284.86
0.0,0.0,9.96,6.51744194329e-05,-0.00388815999031,-1.56434679031, 1520107284.91
0.0,0.0,9.96,6.51744194329e-05,-0.00388815999031,-1.56434679031, 1520107284.96
0.0,0.0,9.96,6.51744194329e-05,-0.00388815999031,-1.56434679031, 1520107285.01
0.0,0.0,9.96,-0.00263808714226,-0.00360966660082,-1.56349551678, 1520107285.07
0.0,0.0,9.96,-0.00263808714226,-0.00360966660082,-1.56349551678, 1520107285.12
0.0,0.0,9.96,-0.00263808714226,-0.00360966660082,-1.56349551678, 1520107285.18
0.0,0.0,9.96,-0.00263808714226,-0.00360966660082,-1.56349551678, 1520107285.23
0.0,0.0,9.96,-0.00263808714226,-0.00360966660082,-1.56349551678, 1520107285.28
0.0,0.0,9.97,-0.00283204205334,0.00740411598235,-1.56291210651, 1520107285.33
0.0,0.0,9.97,-0.00283204205334,0.00740411598235,-1.56291210651, 1520107285.38
0.0,0.0,9.97,-0.00283204205334,0.00740411598235,-1.56291210651, 1520107285.44
0.0,0.0,9.97,-0.00283204205334,0.00740411598235,-1.56291210651, 1520107285.49
0.0,0.0,9.97,-0.00283204205334,0.00740411598235,-1.56291210651, 1520107285.54
0.0,0.0,9.97,-0.00283204205334,0.00740411598235,-1.56291210651, 1520107285.6
0.0,0.0,10.02,-0.000817502383143,0.0144802639261,-1.5634226799, 1520107285.65
0.0,0.0,10.02,-0.000817502383143,0.0144802639261,-1.5634226799, 1520107285.71
0.0,0.0,10.02,-0.000817502383143,0.0144802639261,-1.5634226799, 1520107285.76
0.0,0.0,10.02,-0.000817502383143,0.0144802639261,-1.5634226799, 1520107285.81
0.0,0.0,10.02,-0.000817502383143,0.0144802639261,-1.5634226799, 1520107285.86
0.0,0.0,10.02,-0.000817502383143,0.0144802639261,-1.5634226799, 1520107285.92
0.0,0.0,10.07,0.00329831708223,-0.00236453674734,-1.56380808353, 1520107285.97
0.0,0.0,10.07,0.00329831708223,-0.00236453674734,-1.56380808353, 1520107286.02
0.0,0.0,10.07,0.00329831708223,-0.00236453674734,-1.56380808353, 1520107286.07
0.0,0.0,10.12,0.0138064138591,-0.00716008897871,-1.56193256378, 1520107286.12
0.0,0.0,10.12,0.0138064138591,-0.00716008897871,-1.56193256378, 1520107286.17
0.0,0.0,10.12,0.0138064138591,-0.00716008897871,-1.56193256378, 1520107286.23
0.0,0.0,10.12,0.0138064138591,-0.00716008897871,-1.56193256378, 1520107286.28
0.0,0.0,10.12,0.0149487946182,-0.00788813084364,-1.56475007534, 1520107286.33
0.0,0.0,10.12,0.0149487946182,-0.00788813084364,-1.56475007534, 1520107286.39
0.0,0.0,10.17,0.0149487946182,-0.00788813084364,-1.56475007534, 1520107286.44
0.0,0.0,10.17,0.0149487946182,-0.00788813084364,-1.56475007534, 1520107286.49
0.0,0.0,10.17,0.0149487946182,-0.00788813084364,-1.56475007534, 1520107286.54
0.0,0.0,10.17,0.0149487946182,-0.00788813084364,-1.56475007534, 1520107286.6
0.0,0.0,10.17,0.0149487946182,-0.00788813084364,-1.56475007534, 1520107286.65
0.0,0.0,10.19,0.0174882113934,-0.00644181203097,-1.57840979099, 1520107286.7
0.0,0.0,10.19,0.0174882113934,-0.00644181203097,-1.57840979099, 1520107286.75
0.0,0.0,10.19,0.0174882113934,-0.00644181203097,-1.57840979099, 1520107286.81
0.0,0.0,10.19,0.0174882113934,-0.00644181203097,-1.57840979099, 1520107286.86
0.0,0.0,10.19,0.0174882113934,-0.00644181203097,-1.57840979099, 1520107286.91
0.0,0.0,10.19,0.0174882113934,-0.00644181203097,-1.57840979099, 1520107286.96
0.0,0.0,10.19,0.0174882113934,-0.00644181203097,-1.57840979099, 1520107287.02
0.0,0.0,10.17,0.0198067184538,-0.00418641511351,-1.58785843849, 1520107287.07
0.0,0.0,10.17,0.0198067184538,-0.00418641511351,-1.58785843849, 1520107287.13
0.0,0.0,10.17,0.0198067184538,-0.00418641511351,-1.58785843849, 1520107287.18
0.0,0.0,10.14,0.0155167803168,-0.00900618452579,-1.59883081913, 1520107287.23
0.0,0.0,10.14,0.0155167803168,-0.00900618452579,-1.59883081913, 1520107287.28
0.0,0.0,10.14,0.0155167803168,-0.00900618452579,-1.59883081913, 1520107287.33
0.0,0.0,10.14,0.0155167803168,-0.00900618452579,-1.59883081913, 1520107287.38
0.0,0.0,10.14,0.0155167803168,-0.00900618452579,-1.59883081913, 1520107287.44
0.0,0.0,10.14,0.0155167803168,-0.00900618452579,-1.59883081913, 1520107287.49
0.0,0.0,10.13,0.017464581877,-0.0228439234197,-1.60790228844, 1520107287.54
0.0,0.0,10.13,0.017464581877,-0.0228439234197,-1.60790228844, 1520107287.59
0.0,0.0,10.13,0.017464581877,-0.0228439234197,-1.60790228844, 1520107287.65
0.0,0.0,10.17,0.0176634341478,-0.0378075316548,-1.61749994755, 1520107287.7
0.0,0.0,10.17,0.0176634341478,-0.0378075316548,-1.61749994755, 1520107287.75
0.0,0.0,10.17,0.0176634341478,-0.0378075316548,-1.61749994755, 1520107287.8
0.0,0.0,10.17,0.0176634341478,-0.0378075316548,-1.61749994755, 1520107287.86
0.0,0.0,10.17,0.0176634341478,-0.0378075316548,-1.61749994755, 1520107287.91
0.0,0.0,10.17,0.0176634341478,-0.0378075316548,-1.61749994755, 1520107287.96
0.0,0.0,10.17,0.0176634341478,-0.0378075316548,-1.61749994755, 1520107288.01
0.0,0.0,10.22,0.0188518408686,-0.0522656403482,-1.61984229088, 1520107288.06
0.0,0.0,10.22,0.0188518408686,-0.0522656403482,-1.61984229088, 1520107288.12
0.0,0.0,10.29,0.0187218636274,-0.0618520788848,-1.62068033218, 1520107288.17
0.0,0.0,10.29,0.0187218636274,-0.0618520788848,-1.62068033218, 1520107288.22
0.0,0.0,10.29,0.0187218636274,-0.0618520788848,-1.62068033218, 1520107288.27
0.0,0.0,10.29,0.0187218636274,-0.0618520788848,-1.62068033218, 1520107288.33
0.0,0.0,10.29,0.0187218636274,-0.0618520788848,-1.62068033218, 1520107288.38
0.0,0.0,10.29,0.0187218636274,-0.0618520788848,-1.62068033218, 1520107288.43
0.0,0.0,10.37,0.0168909803033,-0.0706856697798,-1.61969661713, 1520107288.48
0.0,0.0,10.37,0.0168909803033,-0.0706856697798,-1.61969661713, 1520107288.53
0.0,0.0,10.37,0.0168909803033,-0.0706856697798,-1.61969661713, 1520107288.59
0.0,0.0,10.37,0.0168909803033,-0.0706856697798,-1.61969661713, 1520107288.64
0.0,0.0,10.37,0.0168909803033,-0.0706856697798,-1.61969661713, 1520107288.7
0.0,0.0,10.37,0.0168909803033,-0.0706856697798,-1.61969661713, 1520107288.75
0.0,0.0,10.46,0.0187504645437,-0.0917025879025,-1.61838436127, 1520107288.81
0.0,0.0,10.46,0.0187504645437,-0.0917025879025,-1.61838436127, 1520107288.86
0.0,0.0,10.46,0.0187504645437,-0.0917025879025,-1.61838436127, 1520107288.91
0.0,0.0,10.46,0.0187504645437,-0.0917025879025,-1.61838436127, 1520107288.97
0.0,0.0,10.46,0.0187504645437,-0.0917025879025,-1.61838436127, 1520107289.02
0.0,0.0,10.46,0.0187504645437,-0.0917025879025,-1.61838436127, 1520107289.07
0.0,0.0,10.57,0.0195017755032,-0.0997196435928,-1.61845099926, 1520107289.13
0.0,0.0,10.57,0.0195017755032,-0.0997196435928,-1.61845099926, 1520107289.18
0.0,0.0,10.57,0.0195017755032,-0.0997196435928,-1.61845099926, 1520107289.23
0.0,0.0,10.67,0.0189928952605,-0.103490754962,-1.61740350723, 1520107289.28
0.0,0.0,10.67,0.0189928952605,-0.103490754962,-1.61740350723, 1520107289.33
0.0,0.0,10.67,0.0189928952605,-0.103490754962,-1.61740350723, 1520107289.38
0.0,0.0,10.67,0.0189928952605,-0.103490754962,-1.61740350723, 1520107289.43
0.0,0.0,10.67,0.0189928952605,-0.103490754962,-1.61740350723, 1520107289.49
0.0,0.0,10.76,0.0189928952605,-0.103490754962,-1.61740350723, 1520107289.54
0.0,0.0,10.76,0.0189590025693,-0.0993854925036,-1.61874556541, 1520107289.6
0.0,0.0,10.76,0.0189590025693,-0.0993854925036,-1.61874556541, 1520107289.65
0.0,0.0,10.76,0.0189590025693,-0.0993854925036,-1.61874556541, 1520107289.7
0.0,0.0,10.76,0.0189590025693,-0.0993854925036,-1.61874556541, 1520107289.75
0.0,0.0,10.85,0.0151703245938,-0.0971068069339,-1.61710071564, 1520107289.8
0.0,0.0,10.85,0.0151703245938,-0.0971068069339,-1.61710071564, 1520107289.85
0.0,0.0,10.85,0.0151703245938,-0.0971068069339,-1.61710071564, 1520107289.91
0.0,0.0,10.85,0.0151703245938,-0.0971068069339,-1.61710071564, 1520107289.96
0.0,0.0,10.85,0.0151703245938,-0.0971068069339,-1.61710071564, 1520107290.01
0.0,0.0,10.85,0.0151703245938,-0.0971068069339,-1.61710071564, 1520107290.06
0.0,0.0,10.85,0.0151703245938,-0.0971068069339,-1.61710071564, 1520107290.11
0.0,0.0,10.95,0.0174576640129,-0.0889430716634,-1.61716377735, 1520107290.17
0.0,0.0,10.95,0.0174576640129,-0.0889430716634,-1.61716377735, 1520107290.22
0.0,0.0,10.95,0.0174576640129,-0.0889430716634,-1.61716377735, 1520107290.27
0.0,0.0,11.02,0.0186944659799,-0.0786696821451,-1.61756229401, 1520107290.33
0.0,0.0,11.02,0.0186944659799,-0.0786696821451,-1.61756229401, 1520107290.38
0.0,0.0,11.02,0.0186944659799,-0.0786696821451,-1.61756229401, 1520107290.43
0.0,0.0,11.02,0.0186944659799,-0.0786696821451,-1.61756229401, 1520107290.48
0.0,0.0,11.02,0.0186944659799,-0.0786696821451,-1.61756229401, 1520107290.53
0.0,0.0,11.02,0.0186944659799,-0.0786696821451,-1.61756229401, 1520107290.58
0.0,0.0,11.05,0.018772335723,-0.0865012183785,-1.61772358418, 1520107290.63
0.0,0.0,11.05,0.018772335723,-0.0865012183785,-1.61772358418, 1520107290.69
0.0,0.0,11.05,0.018772335723,-0.0865012183785,-1.61772358418, 1520107290.74
0.0,0.0,11.06,0.0183905027807,-0.0823094174266,-1.6182051897, 1520107290.79
0.0,0.0,11.06,0.0183905027807,-0.0823094174266,-1.6182051897, 1520107290.85
0.0,0.0,11.06,0.0183905027807,-0.0823094174266,-1.6182051897, 1520107290.9
0.0,0.0,11.06,0.0183905027807,-0.0823094174266,-1.6182051897, 1520107290.95
0.0,0.0,11.06,0.0183905027807,-0.0823094174266,-1.6182051897, 1520107291.01
0.0,0.0,11.06,0.0183905027807,-0.0823094174266,-1.6182051897, 1520107291.06
0.0,0.0,11.06,0.0183905027807,-0.0823094174266,-1.6182051897, 1520107291.11
0.0,0.0,11.06,0.0183905027807,-0.0823094174266,-1.6182051897, 1520107291.16
0.0,0.0,11.07,0.0183791499585,-0.0848134979606,-1.61705565453, 1520107291.21
0.0,0.0,11.07,0.0183791499585,-0.0848134979606,-1.61705565453, 1520107291.26
0.0,0.0,11.07,0.0183791499585,-0.0848134979606,-1.61705565453, 1520107291.31
0.0,0.0,11.06,0.0188095476478,-0.0859381780028,-1.6178882122, 1520107291.37
0.0,0.0,11.06,0.0188095476478,-0.0859381780028,-1.6178882122, 1520107291.42
0.0,0.0,11.06,0.0188095476478,-0.0859381780028,-1.6178882122, 1520107291.47
0.0,0.0,11.06,0.0188095476478,-0.0859381780028,-1.6178882122, 1520107291.53
0.0,0.0,11.06,0.0188095476478,-0.0859381780028,-1.6178882122, 1520107291.58
0.0,0.0,11.06,0.0198426861316,-0.0788827836514,-1.61763000488, 1520107291.63
0.0,0.0,11.06,0.0198426861316,-0.0788827836514,-1.61763000488, 1520107291.68
0.0,0.0,11.06,0.0198426861316,-0.0788827836514,-1.61763000488, 1520107291.73
0.0,0.0,11.06,0.0198426861316,-0.0788827836514,-1.61763000488, 1520107291.79
0.0,0.0,11.06,0.0198426861316,-0.0788827836514,-1.61763000488, 1520107291.84
0.0,0.0,11.05,0.0193737074733,-0.0690330117941,-1.6184835434, 1520107291.89
0.0,0.0,11.05,0.0193737074733,-0.0690330117941,-1.6184835434, 1520107291.95
0.0,0.0,11.05,0.0193737074733,-0.0690330117941,-1.6184835434, 1520107292.0
0.0,0.0,11.05,0.0193737074733,-0.0690330117941,-1.6184835434, 1520107292.06
0.0,0.0,11.05,0.0193737074733,-0.0690330117941,-1.6184835434, 1520107292.11
0.0,0.0,11.05,0.0193737074733,-0.0690330117941,-1.6184835434, 1520107292.16
0.0,0.0,11.05,0.0193737074733,-0.0690330117941,-1.6184835434, 1520107292.22
0.0,0.0,11.06,0.0242815837264,-0.0577880628407,-1.6179369688, 1520107292.27
0.0,0.0,11.06,0.0242815837264,-0.0577880628407,-1.6179369688, 1520107292.33
0.0,0.0,11.08,0.0305446349084,-0.0567843355238,-1.61671698093, 1520107292.38
0.0,0.0,11.08,0.0305446349084,-0.0567843355238,-1.61671698093, 1520107292.43
0.0,0.0,11.08,0.0305446349084,-0.0567843355238,-1.61671698093, 1520107292.48
0.0,0.0,11.08,0.0305446349084,-0.0567843355238,-1.61671698093, 1520107292.54
0.0,0.0,11.08,0.0305446349084,-0.0567843355238,-1.61671698093, 1520107292.59
0.0,0.0,11.09,0.0305446349084,-0.0567843355238,-1.61671698093, 1520107292.64
0.0,0.0,11.09,0.025770097971,-0.0584474764764,-1.61643493176, 1520107292.69
0.0,0.0,11.09,0.025770097971,-0.0584474764764,-1.61643493176, 1520107292.75
0.0,0.0,11.09,0.025770097971,-0.0584474764764,-1.61643493176, 1520107292.8
0.0,0.0,11.09,0.025770097971,-0.0584474764764,-1.61643493176, 1520107292.85
0.0,0.0,11.12,0.025770097971,-0.0584474764764,-1.61643493176, 1520107292.9
0.0,0.0,11.12,0.0257299207151,-0.0565880797803,-1.61639404297, 1520107292.95
0.0,0.0,11.12,0.0257299207151,-0.0565880797803,-1.61639404297, 1520107293.0
0.0,0.0,11.12,0.0257299207151,-0.0565880797803,-1.61639404297, 1520107293.05
0.0,0.0,11.12,0.0257299207151,-0.0565880797803,-1.61639404297, 1520107293.11
0.0,0.0,11.12,0.0257299207151,-0.0565880797803,-1.61639404297, 1520107293.16
0.0,0.0,11.12,0.0257299207151,-0.0565880797803,-1.61639404297, 1520107293.21
0.0,0.0,11.12,0.0257299207151,-0.0565880797803,-1.61639404297, 1520107293.26
0.0,0.0,11.15,0.0236222334206,-0.0580484829843,-1.6169706583, 1520107293.32
0.0,0.0,11.15,0.0236222334206,-0.0580484829843,-1.6169706583, 1520107293.37
0.0,0.0,11.17,0.0236222334206,-0.0580484829843,-1.6169706583, 1520107293.42
0.0,0.0,11.17,0.0236222334206,-0.0580484829843,-1.6169706583, 1520107293.47
0.0,0.0,11.17,0.0195478014648,-0.0568073876202,-1.61697793007, 1520107293.53
0.0,0.0,11.17,0.0195478014648,-0.0568073876202,-1.61697793007, 1520107293.58
0.0,0.0,11.17,0.0195478014648,-0.0568073876202,-1.61697793007, 1520107293.63
0.0,0.0,11.17,0.0195478014648,-0.0568073876202,-1.61697793007, 1520107293.69
0.0,0.0,11.18,0.0122676379979,-0.052568744868,-1.61729133129, 1520107293.74
0.0,0.0,11.18,0.0122676379979,-0.052568744868,-1.61729133129, 1520107293.79
0.0,0.0,11.18,0.0122676379979,-0.052568744868,-1.61729133129, 1520107293.84
0.0,0.0,11.18,0.0122676379979,-0.052568744868,-1.61729133129, 1520107293.9
0.0,0.0,11.18,0.0122676379979,-0.052568744868,-1.61729133129, 1520107293.95
0.0,0.0,11.17,0.00140172522515,-0.0158492662013,-1.61677694321, 1520107294.0
0.0,0.0,11.17,0.00140172522515,-0.0158492662013,-1.61677694321, 1520107294.06
0.0,0.0,11.17,0.00140172522515,-0.0158492662013,-1.61677694321, 1520107294.11
0.0,0.0,11.17,0.00140172522515,-0.0158492662013,-1.61677694321, 1520107294.16
0.0,0.0,11.17,0.00140172522515,-0.0158492662013,-1.61677694321, 1520107294.22
0.0,0.0,11.17,0.00140172522515,-0.0158492662013,-1.61677694321, 1520107294.27
0.0,0.0,11.17,0.00140172522515,-0.0158492662013,-1.61677694321, 1520107294.32
0.0,0.0,11.15,-0.002042748034,-0.00337358471006,-1.61683189869, 1520107294.37
0.0,0.0,11.15,-0.002042748034,-0.00337358471006,-1.61683189869, 1520107294.43
0.0,0.0,11.15,-0.002042748034,-0.00337358471006,-1.61683189869, 1520107294.48
0.0,0.0,11.11,-0.00078016705811,-0.00531100388616,-1.61741018295, 1520107294.54
0.0,0.0,11.11,-0.00078016705811,-0.00531100388616,-1.61741018295, 1520107294.59
0.0,0.0,11.11,-0.00078016705811,-0.00531100388616,-1.61741018295, 1520107294.64
0.0,0.0,11.11,-0.00078016705811,-0.00531100388616,-1.61741018295, 1520107294.7
0.0,0.0,11.11,-0.00078016705811,-0.00531100388616,-1.61741018295, 1520107294.75
0.0,0.0,11.11,-0.00132270948961,-0.0109874578193,-1.61638641357, 1520107294.8
0.0,0.0,11.11,-0.00132270948961,-0.0109874578193,-1.61638641357, 1520107294.85
0.0,0.0,11.11,-0.00132270948961,-0.0109874578193,-1.61638641357, 1520107294.91
0.0,0.0,11.11,-0.00132270948961,-0.0109874578193,-1.61638641357, 1520107294.96
0.0,0.0,11.11,-0.000397972296923,-0.0182384178042,-1.6165779829, 1520107295.01
0.0,0.0,11.11,-0.000397972296923,-0.0182384178042,-1.6165779829, 1520107295.06
0.0,0.0,11.11,-0.000397972296923,-0.0182384178042,-1.6165779829, 1520107295.12
0.0,0.0,11.11,-0.000397972296923,-0.0182384178042,-1.6165779829, 1520107295.17
0.0,0.0,11.11,-0.000397972296923,-0.0182384178042,-1.6165779829, 1520107295.22
0.0,0.0,11.11,-0.000397972296923,-0.0182384178042,-1.6165779829, 1520107295.27
0.0,0.0,11.11,-0.000397972296923,-0.0182384178042,-1.6165779829, 1520107295.33
0.0,0.0,11.11,-0.000397972296923,-0.0182384178042,-1.6165779829, 1520107295.38
0.0,0.0,11.11,0.0008893487975,-0.0238509885967,-1.61734259129, 1520107295.43
0.0,0.0,11.11,0.0008893487975,-0.0238509885967,-1.61734259129, 1520107295.48
0.0,0.0,11.14,0.000757493078709,-0.0239081941545,-1.61723601818, 1520107295.54
0.0,0.0,11.14,0.000757493078709,-0.0239081941545,-1.61723601818, 1520107295.59
0.0,0.0,11.14,0.000757493078709,-0.0239081941545,-1.61723601818, 1520107295.64
0.0,0.0,11.14,0.000757493078709,-0.0239081941545,-1.61723601818, 1520107295.7
0.0,0.0,11.14,0.000757493078709,-0.0239081941545,-1.61723601818, 1520107295.75
0.0,0.0,11.14,0.000757493078709,-0.0239081941545,-1.61723601818, 1520107295.8
0.0,0.0,11.15,0.00273538101465,-0.0278045199811,-1.61758887768, 1520107295.85
0.0,0.0,11.15,0.00273538101465,-0.0278045199811,-1.61758887768, 1520107295.91
0.0,0.0,11.15,0.00273538101465,-0.0278045199811,-1.61758887768, 1520107295.96
0.0,0.0,11.16,5.58467581868e-06,-0.0184554085135,-1.61761188507, 1520107296.01
0.0,0.0,11.16,5.58467581868e-06,-0.0184554085135,-1.61761188507, 1520107296.06
0.0,0.0,11.16,5.58467581868e-06,-0.0184554085135,-1.61761188507, 1520107296.11
0.0,0.0,11.16,5.58467581868e-06,-0.0184554085135,-1.61761188507, 1520107296.17
0.0,0.0,11.16,5.58467581868e-06,-0.0184554085135,-1.61761188507, 1520107296.22
0.0,0.0,11.16,5.58467581868e-06,-0.0184554085135,-1.61761188507, 1520107296.27
0.0,0.0,11.16,5.58467581868e-06,-0.0184554085135,-1.61761188507, 1520107296.32
0.0,0.0,11.16,5.58467581868e-06,-0.0184554085135,-1.61761188507, 1520107296.38
0.0,0.0,11.13,-0.00207435199991,-0.027882553637,-1.62234890461, 1520107296.43
0.0,0.0,11.13,-0.00207435199991,-0.027882553637,-1.62234890461, 1520107296.48
0.0,0.0,11.13,-0.00207435199991,-0.027882553637,-1.62234890461, 1520107296.53
0.0,0.0,11.13,-0.00207435199991,-0.027882553637,-1.62234890461, 1520107296.59
0.0,0.0,11.13,-0.00207435199991,-0.027882553637,-1.62234890461, 1520107296.64
0.0,0.0,11.12,-0.000366140156984,-0.0382060557604,-1.63393819332, 1520107296.69
0.0,0.0,11.12,-0.000366140156984,-0.0382060557604,-1.63393819332, 1520107296.74
0.0,0.0,11.12,-0.000366140156984,-0.0382060557604,-1.63393819332, 1520107296.79
0.0,0.0,11.12,-0.000366140156984,-0.0382060557604,-1.63393819332, 1520107296.85
0.0,0.0,11.1,-0.000366140156984,-0.0382060557604,-1.63393819332, 1520107296.9
0.0,0.0,11.1,-0.00313259661198,-0.0460702106357,-1.64519071579, 1520107296.95
0.0,0.0,11.1,-0.00313259661198,-0.0460702106357,-1.64519071579, 1520107297.0
0.0,0.0,11.1,-0.00313259661198,-0.0460702106357,-1.64519071579, 1520107297.06
0.0,0.0,11.1,-0.00313259661198,-0.0460702106357,-1.64519071579, 1520107297.11
0.0,0.0,11.07,-0.000990301836282,-0.0522141382098,-1.66025304794, 1520107297.16
0.0,0.0,11.07,-0.000990301836282,-0.0522141382098,-1.66025304794, 1520107297.22
0.0,0.0,11.07,-0.000990301836282,-0.0522141382098,-1.66025304794, 1520107297.27
0.0,0.0,11.07,-0.000990301836282,-0.0522141382098,-1.66025304794, 1520107297.32
0.0,0.0,11.07,-0.000990301836282,-0.0522141382098,-1.66025304794, 1520107297.38
0.0,0.0,11.07,-0.000990301836282,-0.0522141382098,-1.66025304794, 1520107297.43
0.0,0.0,11.07,-0.000990301836282,-0.0522141382098,-1.66025304794, 1520107297.48
0.0,0.0,11.0,-0.00252990145236,-0.0561725087464,-1.67870736122, 1520107297.53
0.0,0.0,11.0,-0.00252990145236,-0.0561725087464,-1.67870736122, 1520107297.58
0.0,0.0,10.94,-0.00290222186595,-0.0570237226784,-1.69792211056, 1520107297.63
0.0,0.0,10.94,-0.00290222186595,-0.0570237226784,-1.69792211056, 1520107297.69
0.0,0.0,10.94,-0.00290222186595,-0.0570237226784,-1.69792211056, 1520107297.74
0.0,0.0,10.94,-0.00290222186595,-0.0570237226784,-1.69792211056, 1520107297.8
0.0,0.0,10.94,-0.00290222186595,-0.0570237226784,-1.69792211056, 1520107297.85
0.0,0.0,10.9,-0.00290222186595,-0.0570237226784,-1.69792211056, 1520107297.9
0.0,0.0,10.9,-0.00264769373462,-0.022371083498,-1.72142350674, 1520107297.95
0.0,0.0,10.9,-0.00264769373462,-0.022371083498,-1.72142350674, 1520107298.01
0.0,0.0,10.9,-0.00264769373462,-0.022371083498,-1.72142350674, 1520107298.06
0.0,0.0,10.9,-0.00264769373462,-0.022371083498,-1.72142350674, 1520107298.11
0.0,0.0,10.88,-0.000923002604395,-0.00477921310812,-1.74727737904, 1520107298.16
0.0,0.0,10.88,-0.000923002604395,-0.00477921310812,-1.74727737904, 1520107298.21
0.0,0.0,10.88,-0.000923002604395,-0.00477921310812,-1.74727737904, 1520107298.27
0.0,0.0,10.88,-0.000923002604395,-0.00477921310812,-1.74727737904, 1520107298.32
0.0,0.0,10.88,-0.000923002604395,-0.00477921310812,-1.74727737904, 1520107298.37
0.0,0.0,10.88,-0.000923002604395,-0.00477921310812,-1.74727737904, 1520107298.42
0.0,0.0,10.88,-0.000923002604395,-0.00477921310812,-1.74727737904, 1520107298.48
0.0,0.0,10.87,-0.00237960834056,-0.00153874792159,-1.76846170425, 1520107298.53
0.0,0.0,10.87,-0.00237960834056,-0.00153874792159,-1.76846170425, 1520107298.58
0.0,0.0,10.87,-0.00196465849876,-0.0016866363585,-1.77979826927, 1520107298.63
0.0,0.0,10.87,-0.00196465849876,-0.0016866363585,-1.77979826927, 1520107298.68
0.0,0.0,10.87,-0.00196465849876,-0.0016866363585,-1.77979826927, 1520107298.73
0.0,0.0,10.87,-0.00196465849876,-0.0016866363585,-1.77979826927, 1520107298.79
0.0,0.0,10.87,-0.00196465849876,-0.0016866363585,-1.77979826927, 1520107298.84
0.0,0.0,10.87,-0.00196465849876,-0.0016866363585,-1.77979826927, 1520107298.89
0.0,0.0,10.88,0.00110953953117,0.000747558660805,-1.77830219269, 1520107298.95
0.0,0.0,10.88,0.00110953953117,0.000747558660805,-1.77830219269, 1520107299.0
0.0,0.0,10.88,0.00110953953117,0.000747558660805,-1.77830219269, 1520107299.05
0.0,0.0,10.88,0.00110953953117,0.000747558660805,-1.77830219269, 1520107299.1
0.0,0.0,10.88,0.00110953953117,0.000747558660805,-1.77830219269, 1520107299.16
0.0,0.0,10.88,0.00110953953117,0.000747558660805,-1.77830219269, 1520107299.21
0.0,0.0,10.88,0.00217341631651,0.000781108159572,-1.7776607275, 1520107299.26
0.0,0.0,10.88,0.00217341631651,0.000781108159572,-1.7776607275, 1520107299.31
0.0,0.0,10.88,0.00217341631651,0.000781108159572,-1.7776607275, 1520107299.36
0.0,0.0,10.88,0.00217341631651,0.000781108159572,-1.7776607275, 1520107299.42
0.0,0.0,10.88,0.00217341631651,0.000781108159572,-1.7776607275, 1520107299.47
0.0,0.0,10.88,0.00217341631651,0.000781108159572,-1.7776607275, 1520107299.52
0.0,0.0,10.88,0.00217341631651,0.000781108159572,-1.7776607275, 1520107299.58
0.0,0.0,10.86,0.00244940072298,-0.00312660448253,-1.77768921852, 1520107299.63
0.0,0.0,10.86,0.00244940072298,-0.00312660448253,-1.77768921852, 1520107299.68
0.0,0.0,10.86,0.00244940072298,-0.00312660448253,-1.77768921852, 1520107299.73
0.0,0.0,10.84,0.00339377205819,-0.00271290354431,-1.77734494209, 1520107299.78
0.0,0.0,10.84,0.00339377205819,-0.00271290354431,-1.77734494209, 1520107299.84
0.0,0.0,10.84,0.00339377205819,-0.00271290354431,-1.77734494209, 1520107299.89
0.0,0.0,10.84,0.00339377205819,-0.00271290354431,-1.77734494209, 1520107299.94
0.0,0.0,10.84,0.00339377205819,-0.00271290354431,-1.77734494209, 1520107299.99
0.0,0.0,10.82,0.00119845476002,-0.00212512444705,-1.77849662304, 1520107300.05
0.0,0.0,10.82,0.00119845476002,-0.00212512444705,-1.77849662304, 1520107300.1
0.0,0.0,10.82,0.00119845476002,-0.00212512444705,-1.77849662304, 1520107300.15
0.0,0.0,10.82,0.00119845476002,-0.00212512444705,-1.77849662304, 1520107300.21
0.0,0.0,10.83,-0.00222467351705,-0.002895148471,-1.77751553059, 1520107300.26
0.0,0.0,10.83,-0.00222467351705,-0.002895148471,-1.77751553059, 1520107300.31
0.0,0.0,10.83,-0.00222467351705,-0.002895148471,-1.77751553059, 1520107300.36
0.0,0.0,10.83,-0.00222467351705,-0.002895148471,-1.77751553059, 1520107300.42
0.0,0.0,10.83,-0.00222467351705,-0.002895148471,-1.77751553059, 1520107300.47
0.0,0.0,10.83,-0.00222467351705,-0.002895148471,-1.77751553059, 1520107300.52
0.0,0.0,10.83,-0.00222467351705,-0.002895148471,-1.77751553059, 1520107300.57
0.0,0.0,10.83,-0.00222467351705,-0.002895148471,-1.77751553059, 1520107300.62
0.0,0.0,10.83,-0.00117781339213,-0.00491467677057,-1.77773356438, 1520107300.67
0.0,0.0,10.83,-0.00117781339213,-0.00491467677057,-1.77773356438, 1520107300.73
0.0,0.0,10.84,-0.00117781339213,-0.00491467677057,-1.77773356438, 1520107300.78
0.0,0.0,10.84,-0.00117781339213,-0.00491467677057,-1.77773356438, 1520107300.83
0.0,0.0,10.84,-0.00172672467306,-0.0246671587229,-1.77697122097, 1520107300.89
0.0,0.0,10.84,-0.00172672467306,-0.0246671587229,-1.77697122097, 1520107300.94
0.0,0.0,10.84,-0.00172672467306,-0.0246671587229,-1.77697122097, 1520107300.99
0.0,0.0,10.83,-0.00085209403187,-0.031828045845,-1.7769857645, 1520107301.04
0.0,0.0,10.83,-0.00085209403187,-0.031828045845,-1.7769857645, 1520107301.09
0.0,0.0,10.83,-0.00085209403187,-0.031828045845,-1.7769857645, 1520107301.15
0.0,0.0,10.83,-0.00085209403187,-0.031828045845,-1.7769857645, 1520107301.2
0.0,0.0,10.8,-0.00085209403187,-0.031828045845,-1.7769857645, 1520107301.25
0.0,0.0,10.8,-0.00085209403187,-0.031828045845,-1.7769857645, 1520107301.3
0.0,0.0,10.8,-0.00133416894823,-0.0221416167915,-1.77816033363, 1520107301.36
0.0,0.0,10.8,-0.00133416894823,-0.0221416167915,-1.77816033363, 1520107301.41
0.0,0.0,10.8,-0.00133416894823,-0.0221416167915,-1.77816033363, 1520107301.47
0.0,0.0,10.8,-0.00133416894823,-0.0221416167915,-1.77816033363, 1520107301.52
0.0,0.0,10.8,-0.00133416894823,-0.0221416167915,-1.77816033363, 1520107301.57
0.0,0.0,10.8,-0.00133416894823,-0.0221416167915,-1.77816033363, 1520107301.63
0.0,0.0,10.78,-0.00328247109428,-0.00826460588723,-1.77808558941, 1520107301.68
0.0,0.0,10.78,-0.00328247109428,-0.00826460588723,-1.77808558941, 1520107301.73
0.0,0.0,10.78,-0.00328247109428,-0.00826460588723,-1.77808558941, 1520107301.78
0.0,0.0,10.76,-0.00207579927519,-0.00380285456777,-1.77953517437, 1520107301.84
0.0,0.0,10.76,-0.00207579927519,-0.00380285456777,-1.77953517437, 1520107301.89
0.0,0.0,10.76,-0.00207579927519,-0.00380285456777,-1.77953517437, 1520107301.94
0.0,0.0,10.76,-0.00207579927519,-0.00380285456777,-1.77953517437, 1520107301.99
0.0,0.0,10.76,-0.00207579927519,-0.00380285456777,-1.77953517437, 1520107302.04
0.0,0.0,10.76,-0.00207579927519,-0.00380285456777,-1.77953517437, 1520107302.09
0.0,0.0,10.75,-0.00255933543667,-0.00054710265249,-1.77921450138, 1520107302.14
0.0,0.0,10.75,-0.00255933543667,-0.00054710265249,-1.77921450138, 1520107302.2
0.0,0.0,10.75,-0.00255933543667,-0.00054710265249,-1.77921450138, 1520107302.25
0.0,0.0,10.75,-0.00255933543667,-0.00054710265249,-1.77921450138, 1520107302.3
0.0,0.0,10.75,-0.00255933543667,-0.00054710265249,-1.77921450138, 1520107302.35
0.0,0.0,10.73,-0.00232493225485,0.000478879082948,-1.77791643143, 1520107302.4
0.0,0.0,10.73,-0.00232493225485,0.000478879082948,-1.77791643143, 1520107302.46
0.0,0.0,10.73,-0.00232493225485,0.000478879082948,-1.77791643143, 1520107302.51
0.0,0.0,10.73,-0.00232493225485,0.000478879082948,-1.77791643143, 1520107302.56
0.0,0.0,10.73,-0.00232493225485,0.000478879082948,-1.77791643143, 1520107302.62
0.0,0.0,10.73,-0.00232493225485,0.000478879082948,-1.77791643143, 1520107302.67
0.0,0.0,10.73,-0.00232493225485,0.000478879082948,-1.77791643143, 1520107302.72
0.0,0.0,10.73,-0.00347635289654,-0.000938939861953,-1.77775847912, 1520107302.78
0.0,0.0,10.73,-0.00347635289654,-0.000938939861953,-1.77775847912, 1520107302.83
0.0,0.0,10.72,-0.00498280767351,0.00112819485366,-1.77739536762, 1520107302.88
0.0,0.0,10.72,-0.00498280767351,0.00112819485366,-1.77739536762, 1520107302.94
0.0,0.0,10.72,-0.00498280767351,0.00112819485366,-1.77739536762, 1520107302.99
0.0,0.0,10.72,-0.00498280767351,0.00112819485366,-1.77739536762, 1520107303.05
0.0,0.0,10.72,-0.00498280767351,0.00112819485366,-1.77739536762, 1520107303.1
0.0,0.0,10.72,-0.000409732572734,0.000807397533208,-1.77789926529, 1520107303.15
0.0,0.0,10.72,-0.000409732572734,0.000807397533208,-1.77789926529, 1520107303.21
0.0,0.0,10.72,-0.000409732572734,0.000807397533208,-1.77789926529, 1520107303.26
0.0,0.0,10.72,-0.000409732572734,0.000807397533208,-1.77789926529, 1520107303.31
0.0,0.0,10.72,-0.000409732572734,0.000807397533208,-1.77789926529, 1520107303.36
0.0,0.0,10.74,0.00020863302052,0.00313490862027,-1.77823281288, 1520107303.42
0.0,0.0,10.74,0.00020863302052,0.00313490862027,-1.77823281288, 1520107303.47
0.0,0.0,10.74,0.00020863302052,0.00313490862027,-1.77823281288, 1520107303.52
0.0,0.0,10.74,0.00020863302052,0.00313490862027,-1.77823281288, 1520107303.58
0.0,0.0,10.74,0.00020863302052,0.00313490862027,-1.77823281288, 1520107303.63
0.0,0.0,10.74,0.00020863302052,0.00313490862027,-1.77823281288, 1520107303.68
0.0,0.0,10.74,0.00020863302052,0.00313490862027,-1.77823281288, 1520107303.74
0.0,0.0,10.73,-0.00774777308106,-0.00221707951277,-1.77805542946, 1520107303.79
0.0,0.0,10.73,-0.00774777308106,-0.00221707951277,-1.77805542946, 1520107303.84
0.0,0.0,10.75,-0.0211259797215,-0.00582886300981,-1.77833247185, 1520107303.9
0.0,0.0,10.75,-0.0211259797215,-0.00582886300981,-1.77833247185, 1520107303.95
0.0,0.0,10.75,-0.0211259797215,-0.00582886300981,-1.77833247185, 1520107304.0
0.0,0.0,10.75,-0.0211259797215,-0.00582886300981,-1.77833247185, 1520107304.05
0.0,0.0,10.74,-0.0343288630247,-0.0100683132187,-1.778434515, 1520107304.1
0.0,0.0,10.74,-0.0343288630247,-0.0100683132187,-1.778434515, 1520107304.16
0.0,0.0,10.74,-0.0343288630247,-0.0100683132187,-1.778434515, 1520107304.21
0.0,0.0,10.74,-0.0343288630247,-0.0100683132187,-1.778434515, 1520107304.26
0.0,0.0,10.74,-0.0343288630247,-0.0100683132187,-1.778434515, 1520107304.31
0.0,0.0,10.73,-0.0490495562553,-0.0102687096223,-1.77879059315, 1520107304.37
0.0,0.0,10.73,-0.0490495562553,-0.0102687096223,-1.77879059315, 1520107304.42
0.0,0.0,10.73,-0.0490495562553,-0.0102687096223,-1.77879059315, 1520107304.47
0.0,0.0,10.73,-0.0490495562553,-0.0102687096223,-1.77879059315, 1520107304.53
0.0,0.0,10.73,-0.0490495562553,-0.0102687096223,-1.77879059315, 1520107304.58
0.0,0.0,10.71,-0.0521789565682,-0.00988783035427,-1.77884542942, 1520107304.64
0.0,0.0,10.71,-0.0521789565682,-0.00988783035427,-1.77884542942, 1520107304.69
0.0,0.0,10.71,-0.0521789565682,-0.00988783035427,-1.77884542942, 1520107304.74
0.0,0.0,10.71,-0.0521789565682,-0.00988783035427,-1.77884542942, 1520107304.79
0.0,0.0,10.71,-0.0521789565682,-0.00988783035427,-1.77884542942, 1520107304.84
0.0,0.0,10.71,-0.0521789565682,-0.00988783035427,-1.77884542942, 1520107304.9
0.0,0.0,10.69,-0.0503719188273,-0.00516183208674,-1.77934038639, 1520107304.95
0.0,0.0,10.69,-0.0503719188273,-0.00516183208674,-1.77934038639, 1520107305.0
0.0,0.0,10.69,-0.0503719188273,-0.00516183208674,-1.77934038639, 1520107305.05
0.0,0.0,10.67,-0.0503719188273,-0.00516183208674,-1.77934038639, 1520107305.1
0.0,0.0,10.67,-0.0503719188273,-0.00516183208674,-1.77934038639, 1520107305.15
0.0,0.0,10.67,-0.0503719188273,-0.00516183208674,-1.77934038639, 1520107305.2
0.0,0.0,10.67,-0.0404198840261,0.00305793434381,-1.77923643589, 1520107305.26
0.0,0.0,10.67,-0.0404198840261,0.00305793434381,-1.77923643589, 1520107305.31
0.0,0.0,10.67,-0.0404198840261,0.00305793434381,-1.77923643589, 1520107305.36
0.0,0.0,10.66,-0.0299782715738,0.0043213465251,-1.77996885777, 1520107305.41
0.0,0.0,10.66,-0.0299782715738,0.0043213465251,-1.77996885777, 1520107305.47
0.0,0.0,10.66,-0.0299782715738,0.0043213465251,-1.77996885777, 1520107305.52
0.0,0.0,10.66,-0.0299782715738,0.0043213465251,-1.77996885777, 1520107305.57
0.0,0.0,10.64,-0.0299782715738,0.0043213465251,-1.77996885777, 1520107305.62
0.0,0.0,10.64,-0.0299782715738,0.0043213465251,-1.77996885777, 1520107305.68
0.0,0.0,10.64,-0.0299782715738,0.0043213465251,-1.77996885777, 1520107305.73
0.0,0.0,10.64,-0.0299782715738,0.0043213465251,-1.77996885777, 1520107305.78
0.0,0.0,10.64,-0.0299782715738,0.0043213465251,-1.77996885777, 1520107305.83
0.0,0.0,10.61,-0.0249777585268,0.0242831818759,-1.77982974052, 1520107305.89
0.0,0.0,10.61,-0.0249777585268,0.0242831818759,-1.77982974052, 1520107305.94
0.0,0.0,10.61,-0.0235083568841,0.0369908846915,-1.7808662653, 1520107305.99
0.0,0.0,10.61,-0.0235083568841,0.0369908846915,-1.7808662653, 1520107306.05
0.0,0.0,10.61,-0.0235083568841,0.0369908846915,-1.7808662653, 1520107306.1
0.0,0.0,10.61,-0.0235083568841,0.0369908846915,-1.7808662653, 1520107306.15
0.0,0.0,10.61,-0.0235083568841,0.0369908846915,-1.7808662653, 1520107306.21
0.0,0.0,10.61,-0.0256549436599,0.0498423613608,-1.78086102009, 1520107306.26
0.0,0.0,10.61,-0.0256549436599,0.0498423613608,-1.78086102009, 1520107306.31
0.0,0.0,10.61,-0.0256549436599,0.0498423613608,-1.78086102009, 1520107306.36
0.0,0.0,10.6,-0.0256549436599,0.0498423613608,-1.78086102009, 1520107306.41
0.0,0.0,10.6,-0.0273206252605,0.0534737110138,-1.78065729141, 1520107306.47
0.0,0.0,10.6,-0.0273206252605,0.0534737110138,-1.78065729141, 1520107306.52
0.0,0.0,10.6,-0.0273206252605,0.0534737110138,-1.78065729141, 1520107306.57
0.0,0.0,10.6,-0.0273206252605,0.0534737110138,-1.78065729141, 1520107306.62
0.0,0.0,10.6,-0.0273206252605,0.0534737110138,-1.78065729141, 1520107306.68
0.0,0.0,10.6,-0.0273206252605,0.0534737110138,-1.78065729141, 1520107306.73
0.0,0.0,10.6,-0.0273206252605,0.0534737110138,-1.78065729141, 1520107306.79
0.0,0.0,10.6,-0.0273206252605,0.0534737110138,-1.78065729141, 1520107306.84
0.0,0.0,10.6,-0.0273206252605,0.0534737110138,-1.78065729141, 1520107306.89
0.0,0.0,10.6,-0.0273206252605,0.0534737110138,-1.78065729141, 1520107306.95
0.0,0.0,10.63,-0.0197242647409,0.0462578833103,-1.78241539001, 1520107307.0
0.0,0.0,10.63,-0.0197242647409,0.0462578833103,-1.78241539001, 1520107307.05
0.0,0.0,10.63,-0.0197242647409,0.0462578833103,-1.78241539001, 1520107307.1
0.0,0.0,10.63,-0.0197242647409,0.0462578833103,-1.78241539001, 1520107307.15
0.0,0.0,10.63,-0.0197242647409,0.0462578833103,-1.78241539001, 1520107307.21
0.0,0.0,10.66,-0.0222578626126,0.0534165240824,-1.78158760071, 1520107307.26
0.0,0.0,10.66,-0.0222578626126,0.0534165240824,-1.78158760071, 1520107307.31
0.0,0.0,10.66,-0.0222578626126,0.0534165240824,-1.78158760071, 1520107307.37
0.0,0.0,10.66,-0.0222578626126,0.0534165240824,-1.78158760071, 1520107307.42
0.0,0.0,10.69,-0.0222578626126,0.0534165240824,-1.78158760071, 1520107307.47
0.0,0.0,10.69,-0.0264643244445,0.0692585036159,-1.78166425228, 1520107307.53
0.0,0.0,10.69,-0.0264643244445,0.0692585036159,-1.78166425228, 1520107307.58
0.0,0.0,10.69,-0.0264643244445,0.0692585036159,-1.78166425228, 1520107307.64
0.0,0.0,10.69,-0.0264643244445,0.0692585036159,-1.78166425228, 1520107307.69
0.0,0.0,10.73,-0.0241688583046,0.0820851624012,-1.78194391727, 1520107307.75
0.0,0.0,10.73,-0.0241688583046,0.0820851624012,-1.78194391727, 1520107307.8
0.0,0.0,10.73,-0.0241688583046,0.0820851624012,-1.78194391727, 1520107307.85
0.0,0.0,10.73,-0.0241688583046,0.0820851624012,-1.78194391727, 1520107307.9
0.0,0.0,10.73,-0.0241688583046,0.0820851624012,-1.78194391727, 1520107307.96
0.0,0.0,10.72,-0.0241688583046,0.0820851624012,-1.78194391727, 1520107308.01
0.0,0.0,10.72,-0.0163843743503,0.0961225107312,-1.78168427944, 1520107308.06
0.0,0.0,10.72,-0.0163843743503,0.0961225107312,-1.78168427944, 1520107308.11
0.0,0.0,10.72,-0.0163843743503,0.0961225107312,-1.78168427944, 1520107308.16
0.0,0.0,10.7,-0.014730273746,0.103030979633,-1.78269398212, 1520107308.21
0.0,0.0,10.7,-0.014730273746,0.103030979633,-1.78269398212, 1520107308.26
0.0,0.0,10.7,-0.014730273746,0.103030979633,-1.78269398212, 1520107308.32
0.0,0.0,10.7,-0.014730273746,0.103030979633,-1.78269398212, 1520107308.37
0.0,0.0,10.66,-0.014730273746,0.103030979633,-1.78269398212, 1520107308.43
0.0,0.0,10.66,-0.014730273746,0.103030979633,-1.78269398212, 1520107308.48
0.0,0.0,10.66,-0.0126937385648,0.093674197793,-1.78341937065, 1520107308.53
0.0,0.0,10.66,-0.0126937385648,0.093674197793,-1.78341937065, 1520107308.59
0.0,0.0,10.66,-0.0126937385648,0.093674197793,-1.78341937065, 1520107308.64
0.0,0.0,10.66,-0.0126937385648,0.093674197793,-1.78341937065, 1520107308.69
0.0,0.0,10.63,-0.0135922217742,0.0806080624461,-1.78385555744, 1520107308.74
0.0,0.0,10.63,-0.0135922217742,0.0806080624461,-1.78385555744, 1520107308.79
0.0,0.0,10.63,-0.0135922217742,0.0806080624461,-1.78385555744, 1520107308.85
0.0,0.0,10.63,-0.0135922217742,0.0806080624461,-1.78385555744, 1520107308.9
0.0,0.0,10.63,-0.0135922217742,0.0806080624461,-1.78385555744, 1520107308.95
0.0,0.0,10.6,-0.0130201233551,0.0702136680484,-1.78461897373, 1520107309.01
0.0,0.0,10.6,-0.0130201233551,0.0702136680484,-1.78461897373, 1520107309.06
0.0,0.0,10.6,-0.0130201233551,0.0702136680484,-1.78461897373, 1520107309.11
