latitutde, longitude, altitude, pitch, roll, yaw, time
0.0,0.0,7.62,-0.0232385732234,-0.0149659747258,0.890948832035, 1520106763.99
0.0,0.0,7.62,-0.0232385732234,-0.0149659747258,0.890948832035, 1520106764.04
0.0,0.0,7.62,-0.0232385732234,-0.0149659747258,0.890948832035, 1520106764.09
0.0,0.0,7.62,-0.0232385732234,-0.0149659747258,0.890948832035, 1520106764.14
0.0,0.0,7.62,-0.0232385732234,-0.0149659747258,0.890948832035, 1520106764.2
0.0,0.0,7.62,-0.0232385732234,-0.0149659747258,0.890948832035, 1520106764.25
0.0,0.0,7.62,-0.0232385732234,-0.0149659747258,0.890948832035, 1520106764.3
0.0,0.0,7.6,-0.0232387147844,-0.0149461487308,0.892436385155, 1520106764.36
0.0,0.0,7.6,-0.0232387147844,-0.0149461487308,0.892436385155, 1520106764.41
0.0,0.0,7.6,-0.0232387147844,-0.0149461487308,0.892436385155, 1520106764.46
0.0,0.0,7.6,-0.0232387147844,-0.0149461487308,0.892436385155, 1520106764.52
0.0,0.0,7.6,-0.0232387147844,-0.0149461487308,0.892436385155, 1520106764.57
0.0,0.0,7.6,-0.0232387147844,-0.0149461487308,0.892436385155, 1520106764.62
0.0,0.0,7.6,-0.0232387147844,-0.0149461487308,0.892436385155, 1520106764.67
0.0,0.0,7.6,-0.0232387147844,-0.0149461487308,0.892436385155, 1520106764.73
0.0,0.0,7.6,-0.0232387147844,-0.0149461487308,0.892436385155, 1520106764.78
0.0,0.0,7.6,-0.0232387147844,-0.0149461487308,0.892436385155, 1520106764.83
0.0,0.0,7.6,-0.0232387147844,-0.0149461487308,0.892436385155, 1520106764.88
0.0,0.0,7.6,-0.0232387147844,-0.0149461487308,0.892436385155, 1520106764.93
0.0,0.0,7.6,-0.0232387147844,-0.0149461487308,0.892436385155, 1520106764.98
0.0,0.0,7.6,-0.0232387147844,-0.0149461487308,0.892436385155, 1520106765.04
0.0,0.0,7.6,-0.0232387147844,-0.0149461487308,0.892436385155, 1520106765.09
0.0,0.0,7.6,-0.0232387147844,-0.0149461487308,0.892436385155, 1520106765.14
0.0,0.0,7.6,-0.0232387147844,-0.0149461487308,0.892436385155, 1520106765.19
0.0,0.0,7.6,-0.0232387147844,-0.0149461487308,0.892436385155, 1520106765.24
0.0,0.0,7.6,-0.0232387147844,-0.0149461487308,0.892436385155, 1520106765.29
0.0,0.0,7.6,-0.0232387147844,-0.0149461487308,0.892436385155, 1520106765.34
0.0,0.0,7.6,-0.0232387147844,-0.0149461487308,0.892436385155, 1520106765.39
0.0,0.0,7.6,-0.0232387147844,-0.0149461487308,0.892436385155, 1520106765.44
0.0,0.0,7.6,-0.0232387147844,-0.0149461487308,0.892436385155, 1520106765.49
0.0,0.0,7.6,-0.0232387147844,-0.0149461487308,0.892436385155, 1520106765.55
0.0,0.0,7.6,-0.0232387147844,-0.0149461487308,0.892436385155, 1520106765.6
0.0,0.0,7.6,-0.0232387147844,-0.0149461487308,0.892436385155, 1520106765.65
0.0,0.0,7.6,-0.0232387147844,-0.0149461487308,0.892436385155, 1520106765.71
0.0,0.0,7.6,-0.0232387147844,-0.0149461487308,0.892436385155, 1520106765.76
0.0,0.0,7.6,-0.0232387147844,-0.0149461487308,0.892436385155, 1520106765.81
0.0,0.0,7.6,-0.0232387147844,-0.0149461487308,0.892436385155, 1520106765.87
0.0,0.0,7.6,-0.0232387147844,-0.0149461487308,0.892436385155, 1520106765.92
0.0,0.0,7.6,-0.0232387147844,-0.0149461487308,0.892436385155, 1520106765.97
0.0,0.0,7.6,-0.0232387147844,-0.0149461487308,0.892436385155, 1520106766.02
0.0,0.0,7.6,-0.0232387147844,-0.0149461487308,0.892436385155, 1520106766.07
0.0,0.0,7.6,-0.0232387147844,-0.0149461487308,0.892436385155, 1520106766.13
0.0,0.0,7.6,-0.0232387147844,-0.0149461487308,0.892436385155, 1520106766.18
0.0,0.0,7.6,-0.0232387147844,-0.0149461487308,0.892436385155, 1520106766.24
0.0,0.0,7.6,-0.0232387147844,-0.0149461487308,0.892436385155, 1520106766.29
0.0,0.0,7.6,-0.0232387147844,-0.0149461487308,0.892436385155, 1520106766.34
0.0,0.0,7.6,-0.0232387147844,-0.0149461487308,0.892436385155, 1520106766.39
0.0,0.0,7.58,-0.0258759688586,-0.0231817476451,0.896127343178, 1520106766.44
0.0,0.0,7.58,-0.0258759688586,-0.0231817476451,0.896127343178, 1520106766.5
0.0,0.0,7.58,-0.0258759688586,-0.0231817476451,0.896127343178, 1520106766.55
0.0,0.0,7.57,-0.0283567029983,-0.0310862921178,0.898031890392, 1520106766.6
0.0,0.0,7.57,-0.0283567029983,-0.0310862921178,0.898031890392, 1520106766.65
0.0,0.0,7.57,-0.0283567029983,-0.0310862921178,0.898031890392, 1520106766.71
0.0,0.0,7.57,-0.0283567029983,-0.0310862921178,0.898031890392, 1520106766.76
0.0,0.0,7.57,-0.0283567029983,-0.0310862921178,0.898031890392, 1520106766.81
0.0,0.0,7.57,-0.0311529431492,-0.0381119698286,0.899285495281, 1520106766.86
0.0,0.0,7.57,-0.0311529431492,-0.0381119698286,0.899285495281, 1520106766.92
0.0,0.0,7.55,-0.0311529431492,-0.0381119698286,0.899285495281, 1520106766.97
0.0,0.0,7.55,-0.0311529431492,-0.0381119698286,0.899285495281, 1520106767.02
0.0,0.0,7.55,-0.0311529431492,-0.0381119698286,0.899285495281, 1520106767.07
0.0,0.0,7.55,-0.0311529431492,-0.0381119698286,0.899285495281, 1520106767.13
0.0,0.0,7.52,-0.0349233746529,-0.0471426136792,0.900439858437, 1520106767.18
0.0,0.0,7.52,-0.0349233746529,-0.0471426136792,0.900439858437, 1520106767.23
0.0,0.0,7.52,-0.0349233746529,-0.0471426136792,0.900439858437, 1520106767.29
0.0,0.0,7.52,-0.0349233746529,-0.0471426136792,0.900439858437, 1520106767.34
0.0,0.0,7.52,-0.0349233746529,-0.0471426136792,0.900439858437, 1520106767.39
0.0,0.0,7.52,-0.0349233746529,-0.0471426136792,0.900439858437, 1520106767.45
0.0,0.0,7.52,-0.0349233746529,-0.0471426136792,0.900439858437, 1520106767.5
0.0,0.0,7.5,-0.0373360812664,-0.0512763783336,0.900951385498, 1520106767.55
0.0,0.0,7.5,-0.0373360812664,-0.0512763783336,0.900951385498, 1520106767.61
0.0,0.0,7.48,-0.0394769795239,-0.0574585907161,0.90225058794, 1520106767.66
0.0,0.0,7.48,-0.0394769795239,-0.0574585907161,0.90225058794, 1520106767.71
0.0,0.0,7.48,-0.0394769795239,-0.0574585907161,0.90225058794, 1520106767.76
0.0,0.0,7.48,-0.0394769795239,-0.0574585907161,0.90225058794, 1520106767.81
0.0,0.0,7.48,-0.0394769795239,-0.0574585907161,0.90225058794, 1520106767.87
0.0,0.0,7.48,-0.0394769795239,-0.0574585907161,0.90225058794, 1520106767.92
0.0,0.0,7.48,-0.0394769795239,-0.0574585907161,0.90225058794, 1520106767.98
0.0,0.0,7.46,-0.0409106276929,-0.0585491470993,0.904458880424, 1520106768.03
0.0,0.0,7.46,-0.0409106276929,-0.0585491470993,0.904458880424, 1520106768.08
0.0,0.0,7.46,-0.0409106276929,-0.0585491470993,0.904458880424, 1520106768.14
0.0,0.0,7.44,-0.0422069355845,-0.0268427357078,0.905888617039, 1520106768.19
0.0,0.0,7.44,-0.0422069355845,-0.0268427357078,0.905888617039, 1520106768.24
0.0,0.0,7.44,-0.0422069355845,-0.0268427357078,0.905888617039, 1520106768.29
0.0,0.0,7.44,-0.0422069355845,-0.0268427357078,0.905888617039, 1520106768.34
0.0,0.0,7.44,-0.0422069355845,-0.0268427357078,0.905888617039, 1520106768.39
0.0,0.0,7.44,-0.0422069355845,-0.0268427357078,0.905888617039, 1520106768.45
0.0,0.0,7.44,-0.0422069355845,-0.0268427357078,0.905888617039, 1520106768.5
0.0,0.0,7.44,-0.0144971702248,0.0179044753313,0.922033548355, 1520106768.55
0.0,0.0,7.44,-0.0144971702248,0.0179044753313,0.922033548355, 1520106768.61
0.0,0.0,7.42,0.0308803096414,0.01958578825,0.924854874611, 1520106768.66
0.0,0.0,7.42,0.0308803096414,0.01958578825,0.924854874611, 1520106768.71
0.0,0.0,7.42,0.0308803096414,0.01958578825,0.924854874611, 1520106768.76
0.0,0.0,7.42,0.0308803096414,0.01958578825,0.924854874611, 1520106768.81
0.0,0.0,7.42,0.0308803096414,0.01958578825,0.924854874611, 1520106768.87
0.0,0.0,7.42,0.0308803096414,0.01958578825,0.924854874611, 1520106768.92
0.0,0.0,7.43,-0.0195624362677,-0.0112809175625,0.933218538761, 1520106768.97
0.0,0.0,7.43,-0.0195624362677,-0.0112809175625,0.933218538761, 1520106769.02
0.0,0.0,7.43,-0.0195624362677,-0.0112809175625,0.933218538761, 1520106769.07
0.0,0.0,7.43,-0.0195624362677,-0.0112809175625,0.933218538761, 1520106769.13
0.0,0.0,7.43,0.0129748657346,-0.0085784336552,0.910926580429, 1520106769.18
0.0,0.0,7.43,0.0129748657346,-0.0085784336552,0.910926580429, 1520106769.23
0.0,0.0,7.44,0.0129748657346,-0.0085784336552,0.910926580429, 1520106769.28
0.0,0.0,7.44,0.0129748657346,-0.0085784336552,0.910926580429, 1520106769.34
0.0,0.0,7.44,0.0129748657346,-0.0085784336552,0.910926580429, 1520106769.39
0.0,0.0,7.44,0.0129748657346,-0.0085784336552,0.910926580429, 1520106769.44
0.0,0.0,7.44,0.0129748657346,-0.0085784336552,0.910926580429, 1520106769.5
0.0,0.0,7.46,-0.0116597525775,-0.0283583365381,0.914454579353, 1520106769.55
0.0,0.0,7.46,-0.0116597525775,-0.0283583365381,0.914454579353, 1520106769.61
0.0,0.0,7.46,-0.00120998127386,-0.0684547647834,0.899357378483, 1520106769.66
0.0,0.0,7.46,-0.00120998127386,-0.0684547647834,0.899357378483, 1520106769.71
0.0,0.0,7.46,-0.00120998127386,-0.0684547647834,0.899357378483, 1520106769.77
0.0,0.0,7.46,-0.00120998127386,-0.0684547647834,0.899357378483, 1520106769.82
0.0,0.0,7.46,-0.00120998127386,-0.0684547647834,0.899357378483, 1520106769.87
0.0,0.0,7.46,-0.00120998127386,-0.0684547647834,0.899357378483, 1520106769.93
0.0,0.0,7.48,-0.0086973272264,-0.0698422044516,0.919031500816, 1520106769.98
0.0,0.0,7.48,-0.0086973272264,-0.0698422044516,0.919031500816, 1520106770.03
0.0,0.0,7.48,-0.0086973272264,-0.0698422044516,0.919031500816, 1520106770.09
0.0,0.0,7.53,-0.0277418512851,-0.0718315094709,0.90622061491, 1520106770.14
0.0,0.0,7.53,-0.0277418512851,-0.0718315094709,0.90622061491, 1520106770.19
0.0,0.0,7.53,-0.0277418512851,-0.0718315094709,0.90622061491, 1520106770.24
0.0,0.0,7.53,-0.0277418512851,-0.0718315094709,0.90622061491, 1520106770.3
0.0,0.0,7.53,-0.0277418512851,-0.0718315094709,0.90622061491, 1520106770.35
0.0,0.0,7.53,-0.0277418512851,-0.0718315094709,0.90622061491, 1520106770.4
0.0,0.0,7.53,-0.0277418512851,-0.0718315094709,0.90622061491, 1520106770.46
0.0,0.0,7.53,-0.0277418512851,-0.0718315094709,0.90622061491, 1520106770.51
0.0,0.0,7.53,-0.0517168566585,-0.0304634645581,0.902094662189, 1520106770.56
0.0,0.0,7.7,-0.0517168566585,-0.0304634645581,0.902094662189, 1520106770.61
0.0,0.0,7.7,-0.0517168566585,-0.0304634645581,0.902094662189, 1520106770.67
0.0,0.0,7.88,-0.0622396692634,-0.0204019472003,0.895025968552, 1520106770.72
0.0,0.0,7.88,-0.0622396692634,-0.0204019472003,0.895025968552, 1520106770.78
0.0,0.0,7.88,-0.0622396692634,-0.0204019472003,0.895025968552, 1520106770.83
0.0,0.0,7.88,-0.0622396692634,-0.0204019472003,0.895025968552, 1520106770.88
0.0,0.0,7.88,-0.0622396692634,-0.0204019472003,0.895025968552, 1520106770.93
0.0,0.0,7.88,-0.0622396692634,-0.0204019472003,0.895025968552, 1520106770.98
0.0,0.0,8.11,-0.0623164921999,-0.0514411441982,0.898973703384, 1520106771.04
0.0,0.0,8.11,-0.0623164921999,-0.0514411441982,0.898973703384, 1520106771.09
0.0,0.0,8.11,-0.0623164921999,-0.0514411441982,0.898973703384, 1520106771.14
0.0,0.0,8.11,-0.0623164921999,-0.0514411441982,0.898973703384, 1520106771.19
0.0,0.0,8.26,-0.0683347582817,-0.0775691270828,0.894069314003, 1520106771.25
0.0,0.0,8.26,-0.0683347582817,-0.0775691270828,0.894069314003, 1520106771.3
0.0,0.0,8.26,-0.0683347582817,-0.0775691270828,0.894069314003, 1520106771.36
0.0,0.0,8.26,-0.0683347582817,-0.0775691270828,0.894069314003, 1520106771.41
0.0,0.0,8.26,-0.0683347582817,-0.0775691270828,0.894069314003, 1520106771.46
0.0,0.0,8.26,-0.0683347582817,-0.0775691270828,0.894069314003, 1520106771.52
0.0,0.0,8.26,-0.0683347582817,-0.0775691270828,0.894069314003, 1520106771.57
0.0,0.0,8.26,-0.0683347582817,-0.0775691270828,0.894069314003, 1520106771.62
0.0,0.0,8.26,-0.0607243552804,-0.0735437273979,0.894034206867, 1520106771.67
0.0,0.0,8.5,-0.0502121411264,-0.0321369618177,0.895935595036, 1520106771.73
0.0,0.0,8.5,-0.0502121411264,-0.0321369618177,0.895935595036, 1520106771.78
0.0,0.0,8.5,-0.0502121411264,-0.0321369618177,0.895935595036, 1520106771.83
0.0,0.0,8.5,-0.0502121411264,-0.0321369618177,0.895935595036, 1520106771.89
0.0,0.0,8.56,-0.0456306040287,-0.00384648703039,0.898339450359, 1520106771.94
0.0,0.0,8.56,-0.0456306040287,-0.00384648703039,0.898339450359, 1520106771.99
0.0,0.0,8.56,-0.0456306040287,-0.00384648703039,0.898339450359, 1520106772.05
0.0,0.0,8.56,-0.0456306040287,-0.00384648703039,0.898339450359, 1520106772.1
0.0,0.0,8.56,-0.0456306040287,-0.00384648703039,0.898339450359, 1520106772.16
0.0,0.0,8.56,-0.0456306040287,-0.00384648703039,0.898339450359, 1520106772.21
0.0,0.0,8.56,-0.0456306040287,-0.00384648703039,0.898339450359, 1520106772.26
0.0,0.0,8.56,-0.0456306040287,-0.00384648703039,0.898339450359, 1520106772.31
0.0,0.0,8.56,-0.0456306040287,-0.00384648703039,0.898339450359, 1520106772.37
0.0,0.0,8.56,-0.0456306040287,-0.00384648703039,0.898339450359, 1520106772.42
0.0,0.0,8.63,-0.0334618464112,0.00584683055058,0.921658992767, 1520106772.48
0.0,0.0,8.63,-0.0334618464112,0.00584683055058,0.921658992767, 1520106772.53
0.0,0.0,8.63,-0.0334618464112,0.00584683055058,0.921658992767, 1520106772.58
0.0,0.0,8.63,-0.0334618464112,0.00584683055058,0.921658992767, 1520106772.64
0.0,0.0,8.73,-0.0334618464112,0.00584683055058,0.921658992767, 1520106772.69
0.0,0.0,8.73,-0.0334618464112,0.00584683055058,0.921658992767, 1520106772.75
0.0,0.0,8.73,-0.0334618464112,0.00584683055058,0.921658992767, 1520106772.8
0.0,0.0,8.87,-0.0253678578883,0.00420497637242,0.945640861988, 1520106772.85
0.0,0.0,8.87,-0.0253678578883,0.00420497637242,0.945640861988, 1520106772.91
0.0,0.0,8.87,-0.0253678578883,0.00420497637242,0.945640861988, 1520106772.96
0.0,0.0,8.87,-0.0253678578883,0.00420497637242,0.945640861988, 1520106773.01
0.0,0.0,8.87,-0.0253678578883,0.00420497637242,0.945640861988, 1520106773.07
0.0,0.0,9.02,-0.0190730206668,0.00333493156359,0.949454665184, 1520106773.12
0.0,0.0,9.02,-0.0190730206668,0.00333493156359,0.949454665184, 1520106773.17
0.0,0.0,9.02,-0.0190730206668,0.00333493156359,0.949454665184, 1520106773.22
0.0,0.0,9.18,-0.0120469676331,0.00341661646962,0.949528217316, 1520106773.27
0.0,0.0,9.18,-0.0120469676331,0.00341661646962,0.949528217316, 1520106773.33
0.0,0.0,9.18,-0.0120469676331,0.00341661646962,0.949528217316, 1520106773.38
0.0,0.0,9.18,-0.0120469676331,0.00341661646962,0.949528217316, 1520106773.43
0.0,0.0,9.18,-0.0120469676331,0.00341661646962,0.949528217316, 1520106773.49
0.0,0.0,9.18,-0.0120469676331,0.00341661646962,0.949528217316, 1520106773.54
0.0,0.0,9.18,-0.0120469676331,0.00341661646962,0.949528217316, 1520106773.59
0.0,0.0,9.18,-0.0120469676331,0.00341661646962,0.949528217316, 1520106773.64
0.0,0.0,9.18,-0.0120469676331,0.00341661646962,0.949528217316, 1520106773.69
0.0,0.0,9.36,-0.0545239932835,0.0141086671501,0.95072811842, 1520106773.75
0.0,0.0,9.36,-0.0545239932835,0.0141086671501,0.95072811842, 1520106773.8
0.0,0.0,9.36,-0.0545239932835,0.0141086671501,0.95072811842, 1520106773.86
0.0,0.0,9.36,-0.0545239932835,0.0141086671501,0.95072811842, 1520106773.91
0.0,0.0,9.36,-0.0545239932835,0.0141086671501,0.95072811842, 1520106773.96
0.0,0.0,9.26,-0.0558690987527,0.0460342653096,0.951810002327, 1520106774.01
0.0,0.0,9.26,-0.0558690987527,0.0460342653096,0.951810002327, 1520106774.06
0.0,0.0,9.26,-0.0558690987527,0.0460342653096,0.951810002327, 1520106774.12
0.0,0.0,9.26,-0.0558690987527,0.0460342653096,0.951810002327, 1520106774.17
0.0,0.0,9.26,-0.053229406476,0.051012005657,0.95010304451, 1520106774.22
0.0,0.0,9.26,-0.053229406476,0.051012005657,0.95010304451, 1520106774.28
0.0,0.0,9.14,-0.053229406476,0.051012005657,0.95010304451, 1520106774.33
0.0,0.0,9.14,-0.053229406476,0.051012005657,0.95010304451, 1520106774.38
0.0,0.0,9.14,-0.053229406476,0.051012005657,0.95010304451, 1520106774.43
0.0,0.0,9.14,-0.053229406476,0.051012005657,0.95010304451, 1520106774.48
0.0,0.0,9.06,-0.0602863654494,0.0451395101845,0.949138045311, 1520106774.54
0.0,0.0,9.06,-0.0602863654494,0.0451395101845,0.949138045311, 1520106774.59
0.0,0.0,9.06,-0.0602863654494,0.0451395101845,0.949138045311, 1520106774.64
0.0,0.0,9.06,-0.0602863654494,0.0451395101845,0.949138045311, 1520106774.69
0.0,0.0,9.06,-0.0602863654494,0.0451395101845,0.949138045311, 1520106774.75
0.0,0.0,9.05,-0.0598618015647,0.0417402274907,0.948678612709, 1520106774.8
0.0,0.0,9.05,-0.0598618015647,0.0417402274907,0.948678612709, 1520106774.85
0.0,0.0,9.05,-0.0598618015647,0.0417402274907,0.948678612709, 1520106774.9
0.0,0.0,9.05,-0.0598618015647,0.0417402274907,0.948678612709, 1520106774.96
0.0,0.0,9.05,-0.0598618015647,0.0417402274907,0.948678612709, 1520106775.01
0.0,0.0,9.13,-0.0514956787229,0.0447510182858,0.949135184288, 1520106775.06
0.0,0.0,9.13,-0.0514956787229,0.0447510182858,0.949135184288, 1520106775.11
0.0,0.0,9.13,-0.0514956787229,0.0447510182858,0.949135184288, 1520106775.17
0.0,0.0,9.13,-0.0514956787229,0.0447510182858,0.949135184288, 1520106775.22
0.0,0.0,9.13,-0.0514956787229,0.0447510182858,0.949135184288, 1520106775.27
0.0,0.0,9.13,-0.0514956787229,0.0447510182858,0.949135184288, 1520106775.32
0.0,0.0,9.24,-0.0466795377433,0.0356011986732,0.950012266636, 1520106775.38
0.0,0.0,9.24,-0.0466795377433,0.0356011986732,0.950012266636, 1520106775.43
0.0,0.0,9.24,-0.0466795377433,0.0356011986732,0.950012266636, 1520106775.48
0.0,0.0,9.34,-0.0335088372231,0.028893340379,0.949667215347, 1520106775.53
0.0,0.0,9.34,-0.0335088372231,0.028893340379,0.949667215347, 1520106775.59
0.0,0.0,9.34,-0.0335088372231,0.028893340379,0.949667215347, 1520106775.64
0.0,0.0,9.34,-0.0335088372231,0.028893340379,0.949667215347, 1520106775.69
0.0,0.0,9.34,-0.0335088372231,0.028893340379,0.949667215347, 1520106775.74
0.0,0.0,9.34,-0.0335088372231,0.028893340379,0.949667215347, 1520106775.8
0.0,0.0,9.47,-0.0131196100265,0.0306826420128,0.954716145992, 1520106775.85
0.0,0.0,9.47,-0.0131196100265,0.0306826420128,0.954716145992, 1520106775.91
0.0,0.0,9.47,-0.0131196100265,0.0306826420128,0.954716145992, 1520106775.96
0.0,0.0,9.47,-0.00452540908009,0.0242024101317,0.955706238747, 1520106776.01
0.0,0.0,9.47,-0.00452540908009,0.0242024101317,0.955706238747, 1520106776.07
0.0,0.0,9.57,-0.00452540908009,0.0242024101317,0.955706238747, 1520106776.12
0.0,0.0,9.57,-0.00452540908009,0.0242024101317,0.955706238747, 1520106776.17
0.0,0.0,9.57,-0.00452540908009,0.0242024101317,0.955706238747, 1520106776.23
0.0,0.0,9.57,-0.00452540908009,0.0242024101317,0.955706238747, 1520106776.28
0.0,0.0,9.64,-0.00384317478165,0.0110753597692,0.961227118969, 1520106776.33
0.0,0.0,9.64,-0.00384317478165,0.0110753597692,0.961227118969, 1520106776.39
0.0,0.0,9.64,-0.00384317478165,0.0110753597692,0.961227118969, 1520106776.44
0.0,0.0,9.64,-0.00384317478165,0.0110753597692,0.961227118969, 1520106776.49
0.0,0.0,9.64,-0.00384317478165,0.0110753597692,0.961227118969, 1520106776.55
0.0,0.0,9.69,-0.019293051213,0.00414442177862,0.971641123295, 1520106776.6
0.0,0.0,9.69,-0.019293051213,0.00414442177862,0.971641123295, 1520106776.66
0.0,0.0,9.69,-0.019293051213,0.00414442177862,0.971641123295, 1520106776.71
0.0,0.0,9.69,-0.019293051213,0.00414442177862,0.971641123295, 1520106776.76
0.0,0.0,9.69,-0.019293051213,0.00414442177862,0.971641123295, 1520106776.82
0.0,0.0,9.7,-0.0373843610287,0.0118328500539,0.979492306709, 1520106776.87
0.0,0.0,9.7,-0.0373843610287,0.0118328500539,0.979492306709, 1520106776.92
0.0,0.0,9.7,-0.0373843610287,0.0118328500539,0.979492306709, 1520106776.97
0.0,0.0,9.7,-0.0373843610287,0.0118328500539,0.979492306709, 1520106777.03
0.0,0.0,9.7,-0.0373843610287,0.0118328500539,0.979492306709, 1520106777.08
0.0,0.0,9.68,-0.0681858062744,0.0180784631521,0.991137266159, 1520106777.14
0.0,0.0,9.68,-0.0681858062744,0.0180784631521,0.991137266159, 1520106777.19
0.0,0.0,9.68,-0.0681858062744,0.0180784631521,0.991137266159, 1520106777.24
0.0,0.0,9.68,-0.0681858062744,0.0180784631521,0.991137266159, 1520106777.29
0.0,0.0,9.68,-0.0763111114502,0.0191405415535,1.00005066395, 1520106777.35
0.0,0.0,9.68,-0.0763111114502,0.0191405415535,1.00005066395, 1520106777.4
0.0,0.0,9.68,-0.0763111114502,0.0191405415535,1.00005066395, 1520106777.45
0.0,0.0,9.68,-0.0763111114502,0.0191405415535,1.00005066395, 1520106777.5
0.0,0.0,9.68,-0.0763111114502,0.0191405415535,1.00005066395, 1520106777.56
0.0,0.0,9.71,-0.0709800720215,0.0164290554821,1.00866615772, 1520106777.61
0.0,0.0,9.71,-0.0709800720215,0.0164290554821,1.00866615772, 1520106777.66
0.0,0.0,9.71,-0.0709800720215,0.0164290554821,1.00866615772, 1520106777.71
0.0,0.0,9.71,-0.0709800720215,0.0164290554821,1.00866615772, 1520106777.77
0.0,0.0,9.71,-0.0709800720215,0.0164290554821,1.00866615772, 1520106777.82
0.0,0.0,9.71,-0.0709800720215,0.0164290554821,1.00866615772, 1520106777.87
0.0,0.0,9.71,-0.0709800720215,0.0164290554821,1.00866615772, 1520106777.93
0.0,0.0,9.72,-0.075587451458,0.0188687331975,1.01533091068, 1520106777.98
0.0,0.0,9.72,-0.075587451458,0.0188687331975,1.01533091068, 1520106778.03
0.0,0.0,9.72,-0.075587451458,0.0188687331975,1.01533091068, 1520106778.09
0.0,0.0,9.72,-0.075587451458,0.0188687331975,1.01533091068, 1520106778.14
0.0,0.0,9.74,-0.0805055052042,0.01453769207,1.01980745792, 1520106778.19
0.0,0.0,9.74,-0.0805055052042,0.01453769207,1.01980745792, 1520106778.24
0.0,0.0,9.74,-0.0805055052042,0.01453769207,1.01980745792, 1520106778.29
0.0,0.0,9.74,-0.0840859264135,0.0132085895166,1.02670741081, 1520106778.35
0.0,0.0,9.74,-0.0840859264135,0.0132085895166,1.02670741081, 1520106778.4
0.0,0.0,9.76,-0.0840859264135,0.0132085895166,1.02670741081, 1520106778.45
0.0,0.0,9.76,-0.0840859264135,0.0132085895166,1.02670741081, 1520106778.5
0.0,0.0,9.76,-0.0840859264135,0.0132085895166,1.02670741081, 1520106778.56
0.0,0.0,9.76,-0.0840859264135,0.0132085895166,1.02670741081, 1520106778.61
0.0,0.0,9.76,-0.0839671343565,0.011096958071,1.032335639, 1520106778.66
0.0,0.0,9.76,-0.0839671343565,0.011096958071,1.032335639, 1520106778.71
0.0,0.0,9.76,-0.0839671343565,0.011096958071,1.032335639, 1520106778.77
0.0,0.0,9.76,-0.0839671343565,0.011096958071,1.032335639, 1520106778.82
0.0,0.0,9.76,-0.0839671343565,0.011096958071,1.032335639, 1520106778.88
0.0,0.0,9.76,-0.0839671343565,0.011096958071,1.032335639, 1520106778.93
0.0,0.0,9.77,-0.0857128128409,0.00631930772215,1.03928101063, 1520106778.98
0.0,0.0,9.77,-0.0857128128409,0.00631930772215,1.03928101063, 1520106779.03
0.0,0.0,9.77,-0.0857128128409,0.00631930772215,1.03928101063, 1520106779.09
0.0,0.0,9.77,-0.0841908827424,0.00662673637271,1.0449450016, 1520106779.14
0.0,0.0,9.77,-0.0841908827424,0.00662673637271,1.0449450016, 1520106779.2
0.0,0.0,9.77,-0.0841908827424,0.00662673637271,1.0449450016, 1520106779.25
0.0,0.0,9.77,-0.0841908827424,0.00662673637271,1.0449450016, 1520106779.3
0.0,0.0,9.77,-0.0841908827424,0.00662673637271,1.0449450016, 1520106779.35
0.0,0.0,9.77,-0.0905988812447,0.00567073235288,1.05231153965, 1520106779.4
0.0,0.0,9.77,-0.0905988812447,0.00567073235288,1.05231153965, 1520106779.46
0.0,0.0,9.77,-0.0905988812447,0.00567073235288,1.05231153965, 1520106779.51
0.0,0.0,9.77,-0.0905988812447,0.00567073235288,1.05231153965, 1520106779.56
0.0,0.0,9.77,-0.0905988812447,0.00567073235288,1.05231153965, 1520106779.61
0.0,0.0,9.77,-0.0810742229223,0.00733746634796,1.05441045761, 1520106779.66
0.0,0.0,9.77,-0.0810742229223,0.00733746634796,1.05441045761, 1520106779.72
0.0,0.0,9.77,-0.0810742229223,0.00733746634796,1.05441045761, 1520106779.77
0.0,0.0,9.77,-0.0810742229223,0.00733746634796,1.05441045761, 1520106779.82
0.0,0.0,9.77,-0.0810742229223,0.00733746634796,1.05441045761, 1520106779.88
0.0,0.0,9.77,-0.0810742229223,0.00733746634796,1.05441045761, 1520106779.93
0.0,0.0,9.77,-0.0810742229223,0.00733746634796,1.05441045761, 1520106779.98
0.0,0.0,9.77,-0.081134095788,0.00550628220662,1.05417025089, 1520106780.03
0.0,0.0,9.77,-0.081134095788,0.00550628220662,1.05417025089, 1520106780.08
0.0,0.0,9.81,-0.080675624311,0.00478508789092,1.05441808701, 1520106780.14
0.0,0.0,9.81,-0.080675624311,0.00478508789092,1.05441808701, 1520106780.19
0.0,0.0,9.81,-0.080675624311,0.00478508789092,1.05441808701, 1520106780.25
0.0,0.0,9.81,-0.080675624311,0.00478508789092,1.05441808701, 1520106780.3
0.0,0.0,9.81,-0.080675624311,0.00478508789092,1.05441808701, 1520106780.35
0.0,0.0,9.81,-0.0835788697004,0.00482939649373,1.05433821678, 1520106780.41
0.0,0.0,9.85,-0.0835788697004,0.00482939649373,1.05433821678, 1520106780.46
0.0,0.0,9.85,-0.0835788697004,0.00482939649373,1.05433821678, 1520106780.51
0.0,0.0,9.85,-0.0835788697004,0.00482939649373,1.05433821678, 1520106780.57
0.0,0.0,9.85,-0.0835788697004,0.00482939649373,1.05433821678, 1520106780.62
0.0,0.0,9.87,-0.0804866924882,0.00202726852149,1.05494165421, 1520106780.67
0.0,0.0,9.87,-0.0804866924882,0.00202726852149,1.05494165421, 1520106780.73
0.0,0.0,9.87,-0.0804866924882,0.00202726852149,1.05494165421, 1520106780.78
0.0,0.0,9.87,-0.0804866924882,0.00202726852149,1.05494165421, 1520106780.83
0.0,0.0,9.87,-0.0804866924882,0.00202726852149,1.05494165421, 1520106780.89
0.0,0.0,9.87,-0.0804866924882,0.00202726852149,1.05494165421, 1520106780.94
0.0,0.0,9.87,-0.0804866924882,0.00202726852149,1.05494165421, 1520106780.99
0.0,0.0,9.87,-0.0791005566716,0.00600873120129,1.05619359016, 1520106781.05
0.0,0.0,9.87,-0.0791005566716,0.00600873120129,1.05619359016, 1520106781.1
0.0,0.0,9.85,-0.0714707374573,0.00530318729579,1.05596327782, 1520106781.16
0.0,0.0,9.85,-0.0714707374573,0.00530318729579,1.05596327782, 1520106781.21
0.0,0.0,9.85,-0.0714707374573,0.00530318729579,1.05596327782, 1520106781.26
0.0,0.0,9.85,-0.0714707374573,0.00530318729579,1.05596327782, 1520106781.31
0.0,0.0,9.85,-0.0714707374573,0.00530318729579,1.05596327782, 1520106781.36
0.0,0.0,9.85,-0.0714707374573,0.00530318729579,1.05596327782, 1520106781.42
0.0,0.0,9.84,-0.0691742449999,0.00842429511249,1.05531609058, 1520106781.47
0.0,0.0,9.84,-0.0691742449999,0.00842429511249,1.05531609058, 1520106781.53
0.0,0.0,9.84,-0.0691742449999,0.00842429511249,1.05531609058, 1520106781.58
0.0,0.0,9.84,-0.0691742449999,0.00842429511249,1.05531609058, 1520106781.63
0.0,0.0,9.82,-0.0694097802043,0.00586626911536,1.05530333519, 1520106781.69
0.0,0.0,9.82,-0.0694097802043,0.00586626911536,1.05530333519, 1520106781.74
0.0,0.0,9.82,-0.0694097802043,0.00586626911536,1.05530333519, 1520106781.79
0.0,0.0,9.82,-0.0694097802043,0.00586626911536,1.05530333519, 1520106781.85
0.0,0.0,9.82,-0.0694097802043,0.00586626911536,1.05530333519, 1520106781.9
0.0,0.0,9.82,-0.0694097802043,0.00586626911536,1.05530333519, 1520106781.95
0.0,0.0,9.82,-0.0694097802043,0.00586626911536,1.05530333519, 1520106782.01
0.0,0.0,9.82,-0.0694097802043,0.00586626911536,1.05530333519, 1520106782.06
0.0,0.0,9.84,-0.0636792629957,0.00693043367937,1.05439245701, 1520106782.11
0.0,0.0,9.87,-0.0537521541119,0.0238029845059,1.05501616001, 1520106782.17
0.0,0.0,9.87,-0.0537521541119,0.0238029845059,1.05501616001, 1520106782.22
0.0,0.0,9.87,-0.0537521541119,0.0238029845059,1.05501616001, 1520106782.28
0.0,0.0,9.87,-0.0537521541119,0.0238029845059,1.05501616001, 1520106782.33
0.0,0.0,9.87,-0.0537521541119,0.0238029845059,1.05501616001, 1520106782.38
0.0,0.0,9.87,-0.0537521541119,0.0238029845059,1.05501616001, 1520106782.44
0.0,0.0,9.92,-0.0493209995329,0.0387925766408,1.05290663242, 1520106782.49
0.0,0.0,9.92,-0.0493209995329,0.0387925766408,1.05290663242, 1520106782.55
0.0,0.0,9.92,-0.0493209995329,0.0387925766408,1.05290663242, 1520106782.6
0.0,0.0,10.0,-0.0473420731723,0.0349384732544,1.05464398861, 1520106782.66
0.0,0.0,10.0,-0.0473420731723,0.0349384732544,1.05464398861, 1520106782.71
0.0,0.0,10.0,-0.0473420731723,0.0349384732544,1.05464398861, 1520106782.76
0.0,0.0,10.0,-0.0473420731723,0.0349384732544,1.05464398861, 1520106782.82
0.0,0.0,10.0,-0.0473420731723,0.0349384732544,1.05464398861, 1520106782.87
0.0,0.0,10.0,-0.0473420731723,0.0349384732544,1.05464398861, 1520106782.93
0.0,0.0,10.0,-0.0473420731723,0.0349384732544,1.05464398861, 1520106782.98
0.0,0.0,10.0,-0.0473420731723,0.0349384732544,1.05464398861, 1520106783.03
0.0,0.0,10.0,-0.0473420731723,0.0349384732544,1.05464398861, 1520106783.09
0.0,0.0,10.11,-0.0462469421327,0.0246330313385,1.05378174782, 1520106783.14
0.0,0.0,10.22,-0.0394525267184,0.0340618118644,1.05460524559, 1520106783.19
0.0,0.0,10.22,-0.0394525267184,0.0340618118644,1.05460524559, 1520106783.25
0.0,0.0,10.22,-0.0394525267184,0.0340618118644,1.05460524559, 1520106783.3
0.0,0.0,10.22,-0.0394525267184,0.0340618118644,1.05460524559, 1520106783.36
0.0,0.0,10.22,-0.0394525267184,0.0340618118644,1.05460524559, 1520106783.41
0.0,0.0,10.22,-0.0394525267184,0.0340618118644,1.05460524559, 1520106783.46
0.0,0.0,10.22,-0.0394525267184,0.0340618118644,1.05460524559, 1520106783.51
0.0,0.0,10.22,-0.0394525267184,0.0340618118644,1.05460524559, 1520106783.57
0.0,0.0,10.25,-0.0353045761585,0.0562798678875,1.05346488953, 1520106783.62
0.0,0.0,10.25,-0.0353045761585,0.0562798678875,1.05346488953, 1520106783.67
0.0,0.0,10.26,-0.0296373832971,0.083402492106,1.05375933647, 1520106783.72
0.0,0.0,10.26,-0.0296373832971,0.083402492106,1.05375933647, 1520106783.77
0.0,0.0,10.26,-0.0296373832971,0.083402492106,1.05375933647, 1520106783.83
0.0,0.0,10.26,-0.0296373832971,0.083402492106,1.05375933647, 1520106783.88
0.0,0.0,10.26,-0.0296373832971,0.083402492106,1.05375933647, 1520106783.93
0.0,0.0,10.22,-0.0240523647517,0.0682466626167,1.05272912979, 1520106783.99
0.0,0.0,10.22,-0.0240523647517,0.0682466626167,1.05272912979, 1520106784.04
0.0,0.0,10.22,-0.0240523647517,0.0682466626167,1.05272912979, 1520106784.09
0.0,0.0,10.22,-0.0240523647517,0.0682466626167,1.05272912979, 1520106784.15
0.0,0.0,10.22,-0.0240523647517,0.0682466626167,1.05272912979, 1520106784.2
0.0,0.0,10.22,-0.0244808383286,0.0633286163211,1.05326735973, 1520106784.25
0.0,0.0,10.22,-0.0244808383286,0.0633286163211,1.05326735973, 1520106784.3
0.0,0.0,10.22,-0.0244808383286,0.0633286163211,1.05326735973, 1520106784.36
0.0,0.0,10.22,-0.0244808383286,0.0633286163211,1.05326735973, 1520106784.41
0.0,0.0,10.22,-0.0244808383286,0.0633286163211,1.05326735973, 1520106784.46
0.0,0.0,10.25,-0.0253273565322,0.0658223778009,1.05084300041, 1520106784.52
0.0,0.0,10.25,-0.0253273565322,0.0658223778009,1.05084300041, 1520106784.57
0.0,0.0,10.25,-0.0253273565322,0.0658223778009,1.05084300041, 1520106784.62
0.0,0.0,10.3,-0.0259869154543,0.0719016417861,1.04836547375, 1520106784.68
0.0,0.0,10.3,-0.0259869154543,0.0719016417861,1.04836547375, 1520106784.73
0.0,0.0,10.3,-0.0259869154543,0.0719016417861,1.04836547375, 1520106784.78
0.0,0.0,10.3,-0.0259869154543,0.0719016417861,1.04836547375, 1520106784.83
0.0,0.0,10.3,-0.0259869154543,0.0719016417861,1.04836547375, 1520106784.89
0.0,0.0,10.3,-0.0259869154543,0.0719016417861,1.04836547375, 1520106784.94
0.0,0.0,10.36,-0.0285893641412,0.0617773942649,1.0389444828, 1520106784.99
0.0,0.0,10.36,-0.0285893641412,0.0617773942649,1.0389444828, 1520106785.04
0.0,0.0,10.36,-0.0285893641412,0.0617773942649,1.0389444828, 1520106785.1
0.0,0.0,10.36,-0.0285893641412,0.0617773942649,1.0389444828, 1520106785.15
0.0,0.0,10.36,-0.0285893641412,0.0617773942649,1.0389444828, 1520106785.2
0.0,0.0,10.36,-0.0285893641412,0.0617773942649,1.0389444828, 1520106785.25
0.0,0.0,10.36,-0.0285893641412,0.0617773942649,1.0389444828, 1520106785.31
0.0,0.0,10.43,-0.0284662544727,0.0576246008277,1.03115916252, 1520106785.36
0.0,0.0,10.43,-0.0284662544727,0.0576246008277,1.03115916252, 1520106785.41
0.0,0.0,10.43,-0.0284662544727,0.0576246008277,1.03115916252, 1520106785.47
0.0,0.0,10.48,-0.0252745617181,0.0534826666117,1.0270242691, 1520106785.52
0.0,0.0,10.48,-0.0252745617181,0.0534826666117,1.0270242691, 1520106785.58
0.0,0.0,10.48,-0.0252745617181,0.0534826666117,1.0270242691, 1520106785.63
0.0,0.0,10.48,-0.0252745617181,0.0534826666117,1.0270242691, 1520106785.68
0.0,0.0,10.48,-0.0252745617181,0.0534826666117,1.0270242691, 1520106785.73
0.0,0.0,10.52,-0.0214100517333,0.0547266863286,1.02202892303, 1520106785.78
0.0,0.0,10.52,-0.0214100517333,0.0547266863286,1.02202892303, 1520106785.84
0.0,0.0,10.52,-0.0214100517333,0.0547266863286,1.02202892303, 1520106785.89
0.0,0.0,10.52,-0.0214100517333,0.0547266863286,1.02202892303, 1520106785.94
0.0,0.0,10.55,0.0119733586907,0.0293418169022,1.01837050915, 1520106786.0
0.0,0.0,10.55,0.0119733586907,0.0293418169022,1.01837050915, 1520106786.05
0.0,0.0,10.55,0.0119733586907,0.0293418169022,1.01837050915, 1520106786.1
0.0,0.0,10.55,0.0119733586907,0.0293418169022,1.01837050915, 1520106786.15
0.0,0.0,10.55,0.0119733586907,0.0293418169022,1.01837050915, 1520106786.2
0.0,0.0,10.55,0.0119733586907,0.0293418169022,1.01837050915, 1520106786.26
0.0,0.0,10.55,0.0119733586907,0.0293418169022,1.01837050915, 1520106786.31
0.0,0.0,10.55,0.0119733586907,0.0293418169022,1.01837050915, 1520106786.36
0.0,0.0,10.6,0.0619518607855,0.0113976728171,1.01568102837, 1520106786.42
0.0,0.0,10.6,0.0619518607855,0.0113976728171,1.01568102837, 1520106786.47
0.0,0.0,10.65,0.0655638203025,0.0167221203446,1.01159310341, 1520106786.53
0.0,0.0,10.65,0.0655638203025,0.0167221203446,1.01159310341, 1520106786.58
0.0,0.0,10.65,0.0655638203025,0.0167221203446,1.01159310341, 1520106786.63
0.0,0.0,10.65,0.0655638203025,0.0167221203446,1.01159310341, 1520106786.69
0.0,0.0,10.65,0.0655638203025,0.0167221203446,1.01159310341, 1520106786.74
0.0,0.0,10.73,0.0719506517053,0.0286609344184,1.01106441021, 1520106786.79
0.0,0.0,10.73,0.0719506517053,0.0286609344184,1.01106441021, 1520106786.84
0.0,0.0,10.73,0.0719506517053,0.0286609344184,1.01106441021, 1520106786.9
0.0,0.0,10.73,0.0719506517053,0.0286609344184,1.01106441021, 1520106786.95
0.0,0.0,10.82,0.0905526503921,0.0582203455269,1.0122140646, 1520106787.0
0.0,0.0,10.82,0.0905526503921,0.0582203455269,1.0122140646, 1520106787.06
0.0,0.0,10.82,0.0905526503921,0.0582203455269,1.0122140646, 1520106787.11
0.0,0.0,10.82,0.0905526503921,0.0582203455269,1.0122140646, 1520106787.16
0.0,0.0,10.82,0.0905526503921,0.0582203455269,1.0122140646, 1520106787.21
0.0,0.0,10.82,0.0905526503921,0.0582203455269,1.0122140646, 1520106787.26
0.0,0.0,10.82,0.0905526503921,0.0582203455269,1.0122140646, 1520106787.31
0.0,0.0,10.92,0.0852768048644,0.067691385746,1.01130306721, 1520106787.36
0.0,0.0,10.92,0.0852768048644,0.067691385746,1.01130306721, 1520106787.41
0.0,0.0,10.92,0.0852768048644,0.067691385746,1.01130306721, 1520106787.47
0.0,0.0,11.04,0.0977807715535,0.0655182823539,1.00953555107, 1520106787.52
0.0,0.0,11.04,0.0977807715535,0.0655182823539,1.00953555107, 1520106787.57
0.0,0.0,11.04,0.0977807715535,0.0655182823539,1.00953555107, 1520106787.63
0.0,0.0,11.04,0.0977807715535,0.0655182823539,1.00953555107, 1520106787.68
0.0,0.0,11.04,0.0977807715535,0.0655182823539,1.00953555107, 1520106787.73
0.0,0.0,11.04,0.0977807715535,0.0655182823539,1.00953555107, 1520106787.78
0.0,0.0,11.19,0.0878859832883,0.0668362900615,1.00362682343, 1520106787.84
0.0,0.0,11.19,0.0878859832883,0.0668362900615,1.00362682343, 1520106787.89
0.0,0.0,11.19,0.0878859832883,0.0668362900615,1.00362682343, 1520106787.95
0.0,0.0,11.29,0.0826679691672,0.0726360604167,0.989326477051, 1520106788.0
0.0,0.0,11.29,0.0826679691672,0.0726360604167,0.989326477051, 1520106788.05
0.0,0.0,11.29,0.0826679691672,0.0726360604167,0.989326477051, 1520106788.1
0.0,0.0,11.29,0.0826679691672,0.0726360604167,0.989326477051, 1520106788.15
0.0,0.0,11.29,0.0826679691672,0.0726360604167,0.989326477051, 1520106788.2
0.0,0.0,11.29,0.0826679691672,0.0726360604167,0.989326477051, 1520106788.26
0.0,0.0,11.29,0.0826679691672,0.0726360604167,0.989326477051, 1520106788.31
0.0,0.0,11.29,0.0826679691672,0.0726360604167,0.989326477051, 1520106788.36
0.0,0.0,11.39,0.0847464799881,0.0465450026095,0.990219652653, 1520106788.41
0.0,0.0,11.43,0.0917256399989,0.029371380806,0.989471971989, 1520106788.47
0.0,0.0,11.43,0.0917256399989,0.029371380806,0.989471971989, 1520106788.52
0.0,0.0,11.43,0.0917256399989,0.029371380806,0.989471971989, 1520106788.57
0.0,0.0,11.43,0.0917256399989,0.029371380806,0.989471971989, 1520106788.63
0.0,0.0,11.43,0.0917256399989,0.029371380806,0.989471971989, 1520106788.68
0.0,0.0,11.43,0.0917256399989,0.029371380806,0.989471971989, 1520106788.73
0.0,0.0,11.49,0.0738614201546,0.0262464955449,0.989326834679, 1520106788.78
0.0,0.0,11.49,0.0738614201546,0.0262464955449,0.989326834679, 1520106788.84
0.0,0.0,11.49,0.0738614201546,0.0262464955449,0.989326834679, 1520106788.89
0.0,0.0,11.49,0.0738614201546,0.0262464955449,0.989326834679, 1520106788.94
0.0,0.0,11.49,0.0738614201546,0.0262464955449,0.989326834679, 1520106789.0
0.0,0.0,11.55,0.0738614201546,0.0262464955449,0.989326834679, 1520106789.05
0.0,0.0,11.55,0.0650006085634,0.0366177335382,0.990632653236, 1520106789.1
0.0,0.0,11.55,0.0650006085634,0.0366177335382,0.990632653236, 1520106789.16
0.0,0.0,11.55,0.0650006085634,0.0366177335382,0.990632653236, 1520106789.21
0.0,0.0,11.55,0.0650006085634,0.0366177335382,0.990632653236, 1520106789.26
0.0,0.0,11.55,0.0650006085634,0.0366177335382,0.990632653236, 1520106789.31
0.0,0.0,11.55,0.0650006085634,0.0366177335382,0.990632653236, 1520106789.36
0.0,0.0,11.55,0.0650006085634,0.0366177335382,0.990632653236, 1520106789.42
0.0,0.0,11.62,0.0840895101428,0.0709598138928,0.989270210266, 1520106789.47
0.0,0.0,11.62,0.0840895101428,0.0709598138928,0.989270210266, 1520106789.52
0.0,0.0,11.62,0.0840895101428,0.0709598138928,0.989270210266, 1520106789.58
0.0,0.0,11.65,0.0863720700145,0.0963901728392,0.988566637039, 1520106789.63
0.0,0.0,11.65,0.0863720700145,0.0963901728392,0.988566637039, 1520106789.68
0.0,0.0,11.65,0.0863720700145,0.0963901728392,0.988566637039, 1520106789.74
0.0,0.0,11.65,0.0863720700145,0.0963901728392,0.988566637039, 1520106789.79
0.0,0.0,11.65,0.0863720700145,0.0963901728392,0.988566637039, 1520106789.84
0.0,0.0,11.67,0.0789296776056,0.112450323999,0.987709820271, 1520106789.9
0.0,0.0,11.67,0.0789296776056,0.112450323999,0.987709820271, 1520106789.95
0.0,0.0,11.67,0.0789296776056,0.112450323999,0.987709820271, 1520106790.0
0.0,0.0,11.67,0.0789296776056,0.112450323999,0.987709820271, 1520106790.06
0.0,0.0,11.69,0.069959692657,0.120961122215,0.987239658833, 1520106790.11
0.0,0.0,11.69,0.069959692657,0.120961122215,0.987239658833, 1520106790.16
0.0,0.0,11.69,0.069959692657,0.120961122215,0.987239658833, 1520106790.21
0.0,0.0,11.69,0.069959692657,0.120961122215,0.987239658833, 1520106790.26
0.0,0.0,11.69,0.069959692657,0.120961122215,0.987239658833, 1520106790.31
0.0,0.0,11.69,0.069959692657,0.120961122215,0.987239658833, 1520106790.36
0.0,0.0,11.69,0.069959692657,0.120961122215,0.987239658833, 1520106790.42
0.0,0.0,11.69,0.069959692657,0.120961122215,0.987239658833, 1520106790.47
0.0,0.0,11.7,0.0728297308087,0.126547217369,0.986882507801, 1520106790.52
0.0,0.0,11.7,0.0728297308087,0.126547217369,0.986882507801, 1520106790.58
0.0,0.0,11.65,0.090751349926,0.108967617154,0.987850189209, 1520106790.63
0.0,0.0,11.65,0.090751349926,0.108967617154,0.987850189209, 1520106790.68
0.0,0.0,11.65,0.090751349926,0.108967617154,0.987850189209, 1520106790.74
0.0,0.0,11.65,0.090751349926,0.108967617154,0.987850189209, 1520106790.79
0.0,0.0,11.65,0.090751349926,0.108967617154,0.987850189209, 1520106790.84
0.0,0.0,11.51,0.0965338423848,0.102844782174,0.988230586052, 1520106790.9
0.0,0.0,11.51,0.0965338423848,0.102844782174,0.988230586052, 1520106790.95
0.0,0.0,11.51,0.0965338423848,0.102844782174,0.988230586052, 1520106791.0
0.0,0.0,11.51,0.0965338423848,0.102844782174,0.988230586052, 1520106791.06
0.0,0.0,11.34,0.0810386762023,0.103297121823,0.98577773571, 1520106791.11
0.0,0.0,11.34,0.0810386762023,0.103297121823,0.98577773571, 1520106791.16
0.0,0.0,11.34,0.0810386762023,0.103297121823,0.98577773571, 1520106791.21
0.0,0.0,11.34,0.0810386762023,0.103297121823,0.98577773571, 1520106791.26
0.0,0.0,11.34,0.0810386762023,0.103297121823,0.98577773571, 1520106791.31
0.0,0.0,11.34,0.0810386762023,0.103297121823,0.98577773571, 1520106791.37
0.0,0.0,11.34,0.0810386762023,0.103297121823,0.98577773571, 1520106791.42
0.0,0.0,11.34,0.0810386762023,0.103297121823,0.98577773571, 1520106791.47
0.0,0.0,11.15,0.0648374184966,0.0964731127024,0.986391067505, 1520106791.52
0.0,0.0,10.99,0.0427643656731,0.0861054807901,0.984987437725, 1520106791.58
0.0,0.0,10.99,0.0427643656731,0.0861054807901,0.984987437725, 1520106791.63
0.0,0.0,10.99,0.0427643656731,0.0861054807901,0.984987437725, 1520106791.68
0.0,0.0,10.99,0.0427643656731,0.0861054807901,0.984987437725, 1520106791.73
0.0,0.0,10.99,0.0427643656731,0.0861054807901,0.984987437725, 1520106791.78
0.0,0.0,10.99,0.0427643656731,0.0861054807901,0.984987437725, 1520106791.83
0.0,0.0,10.99,0.0427643656731,0.0861054807901,0.984987437725, 1520106791.89
0.0,0.0,10.99,0.0427643656731,0.0861054807901,0.984987437725, 1520106791.94
0.0,0.0,10.86,0.0289514660835,0.0909080654383,0.984048724174, 1520106792.0
0.0,0.0,10.86,0.0289514660835,0.0909080654383,0.984048724174, 1520106792.05
0.0,0.0,10.86,0.0289514660835,0.0909080654383,0.984048724174, 1520106792.1
0.0,0.0,10.77,0.0132930725813,0.0928131267428,0.984475016594, 1520106792.15
0.0,0.0,10.77,0.0132930725813,0.0928131267428,0.984475016594, 1520106792.2
0.0,0.0,10.77,0.0132930725813,0.0928131267428,0.984475016594, 1520106792.26
0.0,0.0,10.77,0.0132930725813,0.0928131267428,0.984475016594, 1520106792.31
0.0,0.0,10.77,0.0132930725813,0.0928131267428,0.984475016594, 1520106792.36
0.0,0.0,10.77,0.0132930725813,0.0928131267428,0.984475016594, 1520106792.42
0.0,0.0,10.77,0.0132930725813,0.0928131267428,0.984475016594, 1520106792.47
0.0,0.0,10.77,0.0132930725813,0.0928131267428,0.984475016594, 1520106792.52
0.0,0.0,10.77,0.0132930725813,0.0928131267428,0.984475016594, 1520106792.57
0.0,0.0,10.67,-0.00851118564606,0.0802011862397,0.983392834663, 1520106792.62
0.0,0.0,10.67,-0.00851118564606,0.0802011862397,0.983392834663, 1520106792.68
0.0,0.0,10.67,-0.00851118564606,0.0802011862397,0.983392834663, 1520106792.73
0.0,0.0,10.67,-0.00851118564606,0.0802011862397,0.983392834663, 1520106792.78
0.0,0.0,10.67,-0.00851118564606,0.0802011862397,0.983392834663, 1520106792.84
0.0,0.0,10.67,-0.00851118564606,0.0802011862397,0.983392834663, 1520106792.89
0.0,0.0,10.62,-0.0317945033312,0.0508101955056,0.982255041599, 1520106792.94
0.0,0.0,10.62,-0.0317945033312,0.0508101955056,0.982255041599, 1520106792.99
0.0,0.0,10.62,-0.0317945033312,0.0508101955056,0.982255041599, 1520106793.05
0.0,0.0,10.6,-0.0527437366545,0.0398981682956,0.983321964741, 1520106793.1
0.0,0.0,10.6,-0.0527437366545,0.0398981682956,0.983321964741, 1520106793.15
0.0,0.0,10.6,-0.0527437366545,0.0398981682956,0.983321964741, 1520106793.2
0.0,0.0,10.6,-0.0527437366545,0.0398981682956,0.983321964741, 1520106793.25
0.0,0.0,10.6,-0.0527437366545,0.0398981682956,0.983321964741, 1520106793.31
0.0,0.0,10.6,-0.0527437366545,0.0398981682956,0.983321964741, 1520106793.36
0.0,0.0,10.55,-0.0956820622087,0.0369924679399,0.983639001846, 1520106793.41
0.0,0.0,10.55,-0.0956820622087,0.0369924679399,0.983639001846, 1520106793.47
0.0,0.0,10.55,-0.0956820622087,0.0369924679399,0.983639001846, 1520106793.52
0.0,0.0,10.55,-0.0956820622087,0.0369924679399,0.983639001846, 1520106793.57
0.0,0.0,10.55,-0.0956820622087,0.0369924679399,0.983639001846, 1520106793.63
0.0,0.0,10.5,-0.108484074473,0.0342550091445,0.983307361603, 1520106793.68
0.0,0.0,10.5,-0.108484074473,0.0342550091445,0.983307361603, 1520106793.74
0.0,0.0,10.5,-0.108484074473,0.0342550091445,0.983307361603, 1520106793.79
0.0,0.0,10.5,-0.108484074473,0.0342550091445,0.983307361603, 1520106793.84
0.0,0.0,10.42,-0.143788427114,0.0247329734266,0.985505580902, 1520106793.9
0.0,0.0,10.42,-0.143788427114,0.0247329734266,0.985505580902, 1520106793.95
0.0,0.0,10.42,-0.143788427114,0.0247329734266,0.985505580902, 1520106794.0
0.0,0.0,10.42,-0.143788427114,0.0247329734266,0.985505580902, 1520106794.05
0.0,0.0,10.42,-0.143788427114,0.0247329734266,0.985505580902, 1520106794.1
0.0,0.0,10.42,-0.143788427114,0.0247329734266,0.985505580902, 1520106794.16
0.0,0.0,10.33,-0.163113921881,0.019481100142,0.984584033489, 1520106794.21
0.0,0.0,10.33,-0.163113921881,0.019481100142,0.984584033489, 1520106794.26
0.0,0.0,10.33,-0.163113921881,0.019481100142,0.984584033489, 1520106794.31
0.0,0.0,10.33,-0.163113921881,0.019481100142,0.984584033489, 1520106794.37
0.0,0.0,10.25,-0.163113921881,0.019481100142,0.984584033489, 1520106794.42
0.0,0.0,10.25,-0.163113921881,0.019481100142,0.984584033489, 1520106794.47
0.0,0.0,10.25,-0.163113921881,0.019481100142,0.984584033489, 1520106794.53
0.0,0.0,10.25,-0.163113921881,0.019481100142,0.984584033489, 1520106794.58
0.0,0.0,10.25,-0.163113921881,0.019481100142,0.984584033489, 1520106794.63
0.0,0.0,10.14,-0.191616654396,0.0129986442626,0.986110031605, 1520106794.69
0.0,0.0,10.14,-0.191616654396,0.0129986442626,0.986110031605, 1520106794.74
0.0,0.0,10.14,-0.191616654396,0.0129986442626,0.986110031605, 1520106794.79
0.0,0.0,10.14,-0.191616654396,0.0129986442626,0.986110031605, 1520106794.85
0.0,0.0,10.05,-0.191616654396,0.0129986442626,0.986110031605, 1520106794.9
0.0,0.0,10.05,-0.191616654396,0.0129986442626,0.986110031605, 1520106794.95
0.0,0.0,10.05,-0.16823977232,0.014035734348,0.987404763699, 1520106795.0
0.0,0.0,10.05,-0.16823977232,0.014035734348,0.987404763699, 1520106795.06
0.0,0.0,10.05,-0.16823977232,0.014035734348,0.987404763699, 1520106795.11
0.0,0.0,9.94,-0.148482054472,0.0135994944721,0.986882925034, 1520106795.17
0.0,0.0,9.94,-0.148482054472,0.0135994944721,0.986882925034, 1520106795.22
0.0,0.0,9.94,-0.148482054472,0.0135994944721,0.986882925034, 1520106795.27
0.0,0.0,9.94,-0.148482054472,0.0135994944721,0.986882925034, 1520106795.33
0.0,0.0,9.94,-0.148482054472,0.0135994944721,0.986882925034, 1520106795.38
0.0,0.0,9.94,-0.148482054472,0.0135994944721,0.986882925034, 1520106795.43
0.0,0.0,9.94,-0.148482054472,0.0135994944721,0.986882925034, 1520106795.48
0.0,0.0,9.86,-0.0651469901204,0.0157858543098,0.988167405128, 1520106795.54
0.0,0.0,9.86,-0.0651469901204,0.0157858543098,0.988167405128, 1520106795.59
0.0,0.0,9.86,-0.0651469901204,0.0157858543098,0.988167405128, 1520106795.65
0.0,0.0,9.86,-0.0651469901204,0.0157858543098,0.988167405128, 1520106795.7
0.0,0.0,9.86,-0.0651469901204,0.0157858543098,0.988167405128, 1520106795.75
0.0,0.0,9.82,-0.00446151290089,0.0062182052061,0.988329231739, 1520106795.8
0.0,0.0,9.82,-0.00446151290089,0.0062182052061,0.988329231739, 1520106795.86
0.0,0.0,9.82,-0.00446151290089,0.0062182052061,0.988329231739, 1520106795.91
0.0,0.0,9.82,-0.00446151290089,0.0062182052061,0.988329231739, 1520106795.96
0.0,0.0,9.82,-0.00446151290089,0.0062182052061,0.988329231739, 1520106796.01
0.0,0.0,9.82,-0.00446151290089,0.0062182052061,0.988329231739, 1520106796.07
0.0,0.0,9.82,-0.00446151290089,0.0062182052061,0.988329231739, 1520106796.12
0.0,0.0,9.82,-0.00446151290089,0.0062182052061,0.988329231739, 1520106796.17
0.0,0.0,9.79,0.0207810588181,0.0052266670391,0.989270448685, 1520106796.23
0.0,0.0,9.79,0.0207810588181,0.0052266670391,0.989270448685, 1520106796.28
0.0,0.0,9.79,0.0207810588181,0.0052266670391,0.989270448685, 1520106796.34
0.0,0.0,9.79,0.0207810588181,0.0052266670391,0.989270448685, 1520106796.39
0.0,0.0,9.79,0.0207810588181,0.0052266670391,0.989270448685, 1520106796.44
0.0,0.0,9.79,0.0207810588181,0.0052266670391,0.989270448685, 1520106796.5
0.0,0.0,9.75,0.0271421037614,0.0041167922318,0.989659011364, 1520106796.55
0.0,0.0,9.75,0.0271421037614,0.0041167922318,0.989659011364, 1520106796.6
0.0,0.0,9.75,0.0271421037614,0.0041167922318,0.989659011364, 1520106796.65
0.0,0.0,9.75,0.0271421037614,0.0041167922318,0.989659011364, 1520106796.7
0.0,0.0,9.75,0.0271421037614,0.0041167922318,0.989659011364, 1520106796.76
0.0,0.0,9.75,0.0321200489998,0.006097917445,0.989891409874, 1520106796.81
0.0,0.0,9.75,0.0321200489998,0.006097917445,0.989891409874, 1520106796.86
0.0,0.0,9.75,0.0321200489998,0.006097917445,0.989891409874, 1520106796.91
0.0,0.0,9.75,0.0321200489998,0.006097917445,0.989891409874, 1520106796.97
0.0,0.0,9.74,0.0396277047694,0.0174078196287,0.991638362408, 1520106797.02
0.0,0.0,9.74,0.0396277047694,0.0174078196287,0.991638362408, 1520106797.07
0.0,0.0,9.74,0.0396277047694,0.0174078196287,0.991638362408, 1520106797.12
0.0,0.0,9.74,0.0396277047694,0.0174078196287,0.991638362408, 1520106797.18
0.0,0.0,9.74,0.0396277047694,0.0174078196287,0.991638362408, 1520106797.23
0.0,0.0,9.73,0.0446364581585,0.039938211441,0.991728127003, 1520106797.28
0.0,0.0,9.73,0.0446364581585,0.039938211441,0.991728127003, 1520106797.34
0.0,0.0,9.73,0.0446364581585,0.039938211441,0.991728127003, 1520106797.39
0.0,0.0,9.73,0.0446364581585,0.039938211441,0.991728127003, 1520106797.45
0.0,0.0,9.71,0.0515623055398,0.0732883512974,0.993737280369, 1520106797.5
0.0,0.0,9.71,0.0515623055398,0.0732883512974,0.993737280369, 1520106797.55
0.0,0.0,9.71,0.0515623055398,0.0732883512974,0.993737280369, 1520106797.61
0.0,0.0,9.71,0.0515623055398,0.0732883512974,0.993737280369, 1520106797.66
0.0,0.0,9.71,0.0515623055398,0.0732883512974,0.993737280369, 1520106797.71
0.0,0.0,9.71,0.0515623055398,0.0732883512974,0.993737280369, 1520106797.76
0.0,0.0,9.71,0.0515623055398,0.0732883512974,0.993737280369, 1520106797.82
0.0,0.0,9.7,0.0596898123622,0.0696587488055,0.989149749279, 1520106797.87
0.0,0.0,9.7,0.0596898123622,0.0696587488055,0.989149749279, 1520106797.93
0.0,0.0,9.7,0.0814585387707,0.0718605369329,0.989395916462, 1520106797.98
0.0,0.0,9.7,0.0814585387707,0.0718605369329,0.989395916462, 1520106798.03
0.0,0.0,9.7,0.0814585387707,0.0718605369329,0.989395916462, 1520106798.08
0.0,0.0,9.7,0.0814585387707,0.0718605369329,0.989395916462, 1520106798.14
0.0,0.0,9.7,0.0814585387707,0.0718605369329,0.989395916462, 1520106798.19
0.0,0.0,9.71,0.0814585387707,0.0718605369329,0.989395916462, 1520106798.24
0.0,0.0,9.71,0.088355012238,0.0798762366176,0.989332079887, 1520106798.3
0.0,0.0,9.71,0.088355012238,0.0798762366176,0.989332079887, 1520106798.35
0.0,0.0,9.72,0.088355012238,0.0798762366176,0.989332079887, 1520106798.4
0.0,0.0,9.72,0.088355012238,0.0798762366176,0.989332079887, 1520106798.45
0.0,0.0,9.72,0.076901383698,0.0703680291772,0.989382088184, 1520106798.51
0.0,0.0,9.72,0.076901383698,0.0703680291772,0.989382088184, 1520106798.56
0.0,0.0,9.72,0.076901383698,0.0703680291772,0.989382088184, 1520106798.61
0.0,0.0,9.72,0.076901383698,0.0703680291772,0.989382088184, 1520106798.67
0.0,0.0,9.72,0.076901383698,0.0703680291772,0.989382088184, 1520106798.72
0.0,0.0,9.72,0.076901383698,0.0703680291772,0.989382088184, 1520106798.78
0.0,0.0,9.72,0.076901383698,0.0703680291772,0.989382088184, 1520106798.83
0.0,0.0,9.72,0.076901383698,0.0703680291772,0.989382088184, 1520106798.88
0.0,0.0,9.68,0.0901379287243,0.056837361306,0.9897377491, 1520106798.94
0.0,0.0,9.68,0.0901379287243,0.056837361306,0.9897377491, 1520106798.99
0.0,0.0,9.66,0.0956096202135,0.059145975858,0.990043997765, 1520106799.05
0.0,0.0,9.66,0.0956096202135,0.059145975858,0.990043997765, 1520106799.1
0.0,0.0,9.66,0.0956096202135,0.059145975858,0.990043997765, 1520106799.15
0.0,0.0,9.66,0.0956096202135,0.059145975858,0.990043997765, 1520106799.21
0.0,0.0,9.66,0.0956096202135,0.059145975858,0.990043997765, 1520106799.26
0.0,0.0,9.66,0.0956096202135,0.059145975858,0.990043997765, 1520106799.32
0.0,0.0,9.66,0.0956096202135,0.059145975858,0.990043997765, 1520106799.37
0.0,0.0,9.66,0.0956096202135,0.059145975858,0.990043997765, 1520106799.43
0.0,0.0,9.66,0.0956096202135,0.059145975858,0.990043997765, 1520106799.48
0.0,0.0,9.66,0.0956096202135,0.059145975858,0.990043997765, 1520106799.53
0.0,0.0,9.66,0.0956096202135,0.059145975858,0.990043997765, 1520106799.59
0.0,0.0,9.58,0.0863589942455,0.055671878159,0.989412486553, 1520106799.64
0.0,0.0,9.58,0.0863589942455,0.055671878159,0.989412486553, 1520106799.7
0.0,0.0,9.53,0.0863589942455,0.055671878159,0.989412486553, 1520106799.75
0.0,0.0,9.53,0.0863589942455,0.055671878159,0.989412486553, 1520106799.8
0.0,0.0,9.53,0.0863589942455,0.055671878159,0.989412486553, 1520106799.85
0.0,0.0,9.53,0.0863589942455,0.055671878159,0.989412486553, 1520106799.9
0.0,0.0,9.53,0.0863589942455,0.055671878159,0.989412486553, 1520106799.96
0.0,0.0,9.53,0.0863589942455,0.055671878159,0.989412486553, 1520106800.01
0.0,0.0,9.53,0.0863589942455,0.055671878159,0.989412486553, 1520106800.06
0.0,0.0,9.53,0.0863589942455,0.055671878159,0.989412486553, 1520106800.11
0.0,0.0,9.49,0.0770322009921,0.0462406352162,0.989334285259, 1520106800.16
0.0,0.0,9.44,0.0770322009921,0.0462406352162,0.989334285259, 1520106800.22
0.0,0.0,9.44,0.0770322009921,0.0462406352162,0.989334285259, 1520106800.27
0.0,0.0,9.44,0.0770322009921,0.0462406352162,0.989334285259, 1520106800.33
0.0,0.0,9.44,0.0770322009921,0.0462406352162,0.989334285259, 1520106800.38
0.0,0.0,9.44,0.0770322009921,0.0462406352162,0.989334285259, 1520106800.43
0.0,0.0,9.44,0.0770322009921,0.0462406352162,0.989334285259, 1520106800.48
0.0,0.0,9.44,0.0770322009921,0.0462406352162,0.989334285259, 1520106800.53
0.0,0.0,9.44,0.0770322009921,0.0462406352162,0.989334285259, 1520106800.58
0.0,0.0,9.41,0.0262108035386,0.0366801731288,0.989433050156, 1520106800.64
0.0,0.0,9.4,0.0262108035386,0.0366801731288,0.989433050156, 1520106800.69
0.0,0.0,9.4,0.0262108035386,0.0366801731288,0.989433050156, 1520106800.75
0.0,0.0,9.4,0.0262108035386,0.0366801731288,0.989433050156, 1520106800.8
0.0,0.0,9.4,0.0262108035386,0.0366801731288,0.989433050156, 1520106800.85
0.0,0.0,9.4,0.0262108035386,0.0366801731288,0.989433050156, 1520106800.9
0.0,0.0,9.4,0.0262108035386,0.0366801731288,0.989433050156, 1520106800.96
0.0,0.0,9.4,0.0262108035386,0.0366801731288,0.989433050156, 1520106801.01
0.0,0.0,9.4,0.0262108035386,0.0366801731288,0.989433050156, 1520106801.06
0.0,0.0,9.4,0.0262108035386,0.0366801731288,0.989433050156, 1520106801.11
0.0,0.0,9.47,0.0240436792374,0.0277802273631,0.988657474518, 1520106801.16
0.0,0.0,9.6,0.0240436792374,0.0277802273631,0.988657474518, 1520106801.22
0.0,0.0,9.6,0.0240436792374,0.0277802273631,0.988657474518, 1520106801.27
0.0,0.0,9.6,0.0240436792374,0.0277802273631,0.988657474518, 1520106801.33
0.0,0.0,9.6,0.0240436792374,0.0277802273631,0.988657474518, 1520106801.38
0.0,0.0,9.6,0.0240436792374,0.0277802273631,0.988657474518, 1520106801.43
0.0,0.0,9.75,0.0253218710423,0.0214161016047,0.988426148891, 1520106801.48
0.0,0.0,9.75,0.0253218710423,0.0214161016047,0.988426148891, 1520106801.53
0.0,0.0,9.75,0.0109450034797,0.0166077204049,0.988143801689, 1520106801.58
0.0,0.0,9.75,0.0109450034797,0.0166077204049,0.988143801689, 1520106801.63
0.0,0.0,9.75,0.0109450034797,0.0166077204049,0.988143801689, 1520106801.68
0.0,0.0,9.95,0.0109450034797,0.0166077204049,0.988143801689, 1520106801.73
0.0,0.0,9.95,0.0109450034797,0.0166077204049,0.988143801689, 1520106801.79
0.0,0.0,9.95,0.0109450034797,0.0166077204049,0.988143801689, 1520106801.84
0.0,0.0,9.95,0.0109450034797,0.0166077204049,0.988143801689, 1520106801.9
0.0,0.0,9.95,0.0109450034797,0.0166077204049,0.988143801689, 1520106801.95
0.0,0.0,9.95,0.0109450034797,0.0166077204049,0.988143801689, 1520106802.0
0.0,0.0,10.15,0.00415111426264,0.0154058961198,0.987644374371, 1520106802.06
0.0,0.0,10.15,0.00598814245313,0.04378066957,0.993462622166, 1520106802.11
0.0,0.0,10.15,0.00598814245313,0.04378066957,0.993462622166, 1520106802.16
0.0,0.0,10.36,0.00598814245313,0.04378066957,0.993462622166, 1520106802.21
0.0,0.0,10.36,0.00598814245313,0.04378066957,0.993462622166, 1520106802.26
0.0,0.0,10.36,0.00944964773953,0.0484405718744,0.992145717144, 1520106802.32
0.0,0.0,10.36,0.00944964773953,0.0484405718744,0.992145717144, 1520106802.37
0.0,0.0,10.36,0.00944964773953,0.0484405718744,0.992145717144, 1520106802.42
0.0,0.0,10.36,0.00944964773953,0.0484405718744,0.992145717144, 1520106802.48
0.0,0.0,10.36,0.00944964773953,0.0484405718744,0.992145717144, 1520106802.53
0.0,0.0,10.51,0.00944964773953,0.0484405718744,0.992145717144, 1520106802.58
0.0,0.0,10.51,0.0188864860684,0.0270297713578,0.992920815945, 1520106802.64
0.0,0.0,10.51,0.0188864860684,0.0270297713578,0.992920815945, 1520106802.69
0.0,0.0,10.51,0.0188864860684,0.0270297713578,0.992920815945, 1520106802.74
0.0,0.0,10.51,0.0188864860684,0.0270297713578,0.992920815945, 1520106802.8
0.0,0.0,10.59,0.0162756312639,0.0141487885267,0.994753420353, 1520106802.85
0.0,0.0,10.59,0.0162756312639,0.0141487885267,0.994753420353, 1520106802.9
0.0,0.0,10.59,0.0162756312639,0.0141487885267,0.994753420353, 1520106802.95
0.0,0.0,10.59,0.0162756312639,0.0141487885267,0.994753420353, 1520106803.0
0.0,0.0,10.61,0.0162756312639,0.0141487885267,0.994753420353, 1520106803.06
0.0,0.0,10.61,0.0239739194512,0.0173419676721,1.00539708138, 1520106803.11
0.0,0.0,10.61,0.0239739194512,0.0173419676721,1.00539708138, 1520106803.16
0.0,0.0,10.6,0.0239739194512,0.0173419676721,1.00539708138, 1520106803.21
0.0,0.0,10.6,0.0239739194512,0.0173419676721,1.00539708138, 1520106803.27
0.0,0.0,10.6,0.0286508239806,0.00577459018677,1.01321148872, 1520106803.32
0.0,0.0,10.6,0.0286508239806,0.00577459018677,1.01321148872, 1520106803.37
0.0,0.0,10.6,0.0286508239806,0.00577459018677,1.01321148872, 1520106803.43
0.0,0.0,10.6,0.0286508239806,0.00577459018677,1.01321148872, 1520106803.48
0.0,0.0,10.6,0.0286508239806,0.00577459018677,1.01321148872, 1520106803.53
0.0,0.0,10.57,0.0286508239806,0.00577459018677,1.01321148872, 1520106803.58
0.0,0.0,10.57,0.0227866563946,0.00392561079934,1.02767956257, 1520106803.63
0.0,0.0,10.57,0.0227866563946,0.00392561079934,1.02767956257, 1520106803.68
0.0,0.0,10.57,0.0227866563946,0.00392561079934,1.02767956257, 1520106803.74
0.0,0.0,10.55,0.0227866563946,0.00392561079934,1.02767956257, 1520106803.79
0.0,0.0,10.55,0.0227866563946,0.00392561079934,1.02767956257, 1520106803.85
0.0,0.0,10.55,0.0227866563946,0.00392561079934,1.02767956257, 1520106803.9
0.0,0.0,10.55,0.0227866563946,0.00392561079934,1.02767956257, 1520106803.95
0.0,0.0,10.55,0.0227866563946,0.00392561079934,1.02767956257, 1520106804.01
0.0,0.0,10.55,0.0227866563946,0.00392561079934,1.02767956257, 1520106804.06
0.0,0.0,10.53,0.00195364747196,0.0309048481286,1.05055582523, 1520106804.11
0.0,0.0,10.53,0.00195364747196,0.0309048481286,1.05055582523, 1520106804.16
0.0,0.0,10.53,0.00195364747196,0.0309048481286,1.05055582523, 1520106804.21
0.0,0.0,10.53,0.00195364747196,0.0309048481286,1.05055582523, 1520106804.26
0.0,0.0,10.53,0.000143639743328,0.0336336456239,1.05171954632, 1520106804.32
0.0,0.0,10.53,0.000143639743328,0.0336336456239,1.05171954632, 1520106804.37
0.0,0.0,10.53,0.000143639743328,0.0336336456239,1.05171954632, 1520106804.42
0.0,0.0,10.53,0.000143639743328,0.0336336456239,1.05171954632, 1520106804.47
0.0,0.0,10.53,0.000143639743328,0.0336336456239,1.05171954632, 1520106804.52
0.0,0.0,10.53,0.000143639743328,0.0336336456239,1.05171954632, 1520106804.57
0.0,0.0,10.51,0.000143639743328,0.0336336456239,1.05171954632, 1520106804.62
0.0,0.0,10.51,0.00113360118121,0.0310754515231,1.05375790596, 1520106804.68
0.0,0.0,10.51,0.00113360118121,0.0310754515231,1.05375790596, 1520106804.73
0.0,0.0,10.51,0.00113360118121,0.0310754515231,1.05375790596, 1520106804.78
0.0,0.0,10.45,0.00113360118121,0.0310754515231,1.05375790596, 1520106804.83
0.0,0.0,10.45,0.00113360118121,0.0310754515231,1.05375790596, 1520106804.89
0.0,0.0,10.45,0.00152941700071,0.0339275449514,1.05372941494, 1520106804.94
0.0,0.0,10.45,0.00152941700071,0.0339275449514,1.05372941494, 1520106805.0
0.0,0.0,10.45,0.00152941700071,0.0339275449514,1.05372941494, 1520106805.05
0.0,0.0,10.45,0.00152941700071,0.0339275449514,1.05372941494, 1520106805.1
0.0,0.0,10.45,0.00152941700071,0.0339275449514,1.05372941494, 1520106805.16
0.0,0.0,10.38,0.00148946791887,0.0507368408144,1.05353212357, 1520106805.21
0.0,0.0,10.38,0.00148946791887,0.0507368408144,1.05353212357, 1520106805.26
0.0,0.0,10.33,0.00148946791887,0.0507368408144,1.05353212357, 1520106805.31
0.0,0.0,10.33,0.00148946791887,0.0507368408144,1.05353212357, 1520106805.36
0.0,0.0,10.33,0.00148946791887,0.0507368408144,1.05353212357, 1520106805.41
0.0,0.0,10.33,0.00276651419699,0.0702219679952,1.05392193794, 1520106805.47
0.0,0.0,10.33,0.00276651419699,0.0702219679952,1.05392193794, 1520106805.52
0.0,0.0,10.33,0.00276651419699,0.0702219679952,1.05392193794, 1520106805.57
0.0,0.0,10.33,0.00276651419699,0.0702219679952,1.05392193794, 1520106805.62
0.0,0.0,10.33,0.00276651419699,0.0702219679952,1.05392193794, 1520106805.68
0.0,0.0,10.33,0.00276651419699,0.0702219679952,1.05392193794, 1520106805.73
0.0,0.0,10.33,0.00276651419699,0.0702219679952,1.05392193794, 1520106805.78
0.0,0.0,10.24,0.00276651419699,0.0702219679952,1.05392193794, 1520106805.83
