latitutde, longitude, altitude, pitch, roll, yaw, time
0.0,0.0,8.5,-0.0096773263067,-0.0016513383016,2.57098770142, 1520107041.76
0.0,0.0,8.5,-0.0096773263067,-0.0016513383016,2.57098770142, 1520107041.81
0.0,0.0,8.5,-0.0096773263067,-0.0016513383016,2.57098770142, 1520107041.87
0.0,0.0,8.5,-0.0096773263067,-0.0016513383016,2.57098770142, 1520107041.92
0.0,0.0,8.48,-0.00987437460572,-0.00144224520773,2.57144188881, 1520107041.97
0.0,0.0,8.48,-0.00987437460572,-0.00144224520773,2.57144188881, 1520107042.02
0.0,0.0,8.48,-0.00987437460572,-0.00144224520773,2.57144188881, 1520107042.07
0.0,0.0,8.48,-0.00987437460572,-0.00144224520773,2.57144188881, 1520107042.13
0.0,0.0,8.48,-0.00987437460572,-0.00144224520773,2.57144188881, 1520107042.18
0.0,0.0,8.48,-0.00980259478092,-0.0012994594872,2.57186746597, 1520107042.23
0.0,0.0,8.48,-0.00980259478092,-0.0012994594872,2.57186746597, 1520107042.29
0.0,0.0,8.48,-0.00980259478092,-0.0012994594872,2.57186746597, 1520107042.34
0.0,0.0,8.47,-0.00980259478092,-0.0012994594872,2.57186746597, 1520107042.4
0.0,0.0,8.47,-0.00980259478092,-0.0012994594872,2.57186746597, 1520107042.45
0.0,0.0,8.47,-0.0099668353796,-0.00110115017742,2.5722181797, 1520107042.5
0.0,0.0,8.47,-0.0099668353796,-0.00110115017742,2.5722181797, 1520107042.55
0.0,0.0,8.47,-0.0099668353796,-0.00110115017742,2.5722181797, 1520107042.6
0.0,0.0,8.47,-0.0099668353796,-0.00110115017742,2.5722181797, 1520107042.65
0.0,0.0,8.47,-0.0099668353796,-0.00110115017742,2.5722181797, 1520107042.7
0.0,0.0,8.47,-0.0099668353796,-0.00110115017742,2.5722181797, 1520107042.75
0.0,0.0,8.47,-0.0098918043077,-0.000907815992832,2.57264924049, 1520107042.81
0.0,0.0,8.47,-0.0098918043077,-0.000907815992832,2.57264924049, 1520107042.86
0.0,0.0,8.45,-0.0101842759177,-0.000843391753733,2.57303333282, 1520107042.91
0.0,0.0,8.45,-0.0101842759177,-0.000843391753733,2.57303333282, 1520107042.97
0.0,0.0,8.45,-0.0101842759177,-0.000843391753733,2.57303333282, 1520107043.02
0.0,0.0,8.45,-0.0101842759177,-0.000843391753733,2.57303333282, 1520107043.08
0.0,0.0,8.45,-0.0101842759177,-0.000843391753733,2.57303333282, 1520107043.13
0.0,0.0,8.45,-0.0101842759177,-0.000843391753733,2.57303333282, 1520107043.18
0.0,0.0,8.44,-0.0100951530039,-0.000956491567194,2.57361268997, 1520107043.24
0.0,0.0,8.44,-0.0100951530039,-0.000956491567194,2.57361268997, 1520107043.29
0.0,0.0,8.44,-0.0100951530039,-0.000956491567194,2.57361268997, 1520107043.34
0.0,0.0,8.44,-0.0104130450636,-0.00102963298559,2.57420110703, 1520107043.39
0.0,0.0,8.44,-0.0104130450636,-0.00102963298559,2.57420110703, 1520107043.44
0.0,0.0,8.44,-0.0104130450636,-0.00102963298559,2.57420110703, 1520107043.5
0.0,0.0,8.44,-0.0104130450636,-0.00102963298559,2.57420110703, 1520107043.55
0.0,0.0,8.45,-0.0104130450636,-0.00102963298559,2.57420110703, 1520107043.6
0.0,0.0,8.45,-0.0104130450636,-0.00102963298559,2.57420110703, 1520107043.66
0.0,0.0,8.45,-0.0106266820803,-0.000914049334824,2.5747718811, 1520107043.71
0.0,0.0,8.45,-0.0106266820803,-0.000914049334824,2.5747718811, 1520107043.76
0.0,0.0,8.45,-0.0106266820803,-0.000914049334824,2.5747718811, 1520107043.81
0.0,0.0,8.45,-0.0106266820803,-0.000914049334824,2.5747718811, 1520107043.87
0.0,0.0,8.46,-0.0104969199747,-0.000881220214069,2.57533788681, 1520107043.92
0.0,0.0,8.46,-0.0104969199747,-0.000881220214069,2.57533788681, 1520107043.97
0.0,0.0,8.46,-0.0104969199747,-0.000881220214069,2.57533788681, 1520107044.02
0.0,0.0,8.46,-0.0105339959264,-0.000935030169785,2.57582879066, 1520107044.08
0.0,0.0,8.46,-0.0105339959264,-0.000935030169785,2.57582879066, 1520107044.13
0.0,0.0,8.46,-0.0105339959264,-0.000935030169785,2.57582879066, 1520107044.18
0.0,0.0,8.46,-0.0105339959264,-0.000935030169785,2.57582879066, 1520107044.23
0.0,0.0,8.46,-0.0105339959264,-0.000935030169785,2.57582879066, 1520107044.29
0.0,0.0,8.46,-0.0105339959264,-0.000935030169785,2.57582879066, 1520107044.34
0.0,0.0,8.46,-0.0105339959264,-0.000935030169785,2.57582879066, 1520107044.39
0.0,0.0,8.46,-0.0105339959264,-0.000935030169785,2.57582879066, 1520107044.44
0.0,0.0,8.46,-0.0105339959264,-0.000935030169785,2.57582879066, 1520107044.5
0.0,0.0,8.46,-0.0105339959264,-0.000935030169785,2.57582879066, 1520107044.55
0.0,0.0,8.46,-0.0105339959264,-0.000935030169785,2.57582879066, 1520107044.6
0.0,0.0,8.46,-0.0105339959264,-0.000935030169785,2.57582879066, 1520107044.65
0.0,0.0,8.46,-0.0105339959264,-0.000935030169785,2.57582879066, 1520107044.7
0.0,0.0,8.46,-0.0105339959264,-0.000935030169785,2.57582879066, 1520107044.75
0.0,0.0,8.46,-0.0105339959264,-0.000935030169785,2.57582879066, 1520107044.81
0.0,0.0,8.46,-0.0105339959264,-0.000935030169785,2.57582879066, 1520107044.86
0.0,0.0,8.46,-0.0105339959264,-0.000935030169785,2.57582879066, 1520107044.92
0.0,0.0,8.46,-0.0105339959264,-0.000935030169785,2.57582879066, 1520107044.97
0.0,0.0,8.46,-0.0105339959264,-0.000935030169785,2.57582879066, 1520107045.02
0.0,0.0,8.46,-0.0105339959264,-0.000935030169785,2.57582879066, 1520107045.08
0.0,0.0,8.46,-0.0105339959264,-0.000935030169785,2.57582879066, 1520107045.13
0.0,0.0,8.46,-0.0105339959264,-0.000935030169785,2.57582879066, 1520107045.19
0.0,0.0,8.46,-0.0105339959264,-0.000935030169785,2.57582879066, 1520107045.24
0.0,0.0,8.46,-0.0105339959264,-0.000935030169785,2.57582879066, 1520107045.3
0.0,0.0,8.46,-0.0105339959264,-0.000935030169785,2.57582879066, 1520107045.35
0.0,0.0,8.46,-0.0105339959264,-0.000935030169785,2.57582879066, 1520107045.4
0.0,0.0,8.46,-0.0105339959264,-0.000935030169785,2.57582879066, 1520107045.45
0.0,0.0,8.46,-0.0105339959264,-0.000935030169785,2.57582879066, 1520107045.5
0.0,0.0,8.46,-0.0105339959264,-0.000935030169785,2.57582879066, 1520107045.55
0.0,0.0,8.46,-0.0105339959264,-0.000935030169785,2.57582879066, 1520107045.6
0.0,0.0,8.46,-0.0105339959264,-0.000935030169785,2.57582879066, 1520107045.66
0.0,0.0,8.46,-0.0105339959264,-0.000935030169785,2.57582879066, 1520107045.71
0.0,0.0,8.46,-0.0105339959264,-0.000935030169785,2.57582879066, 1520107045.77
0.0,0.0,8.46,-0.0105339959264,-0.000935030169785,2.57582879066, 1520107045.82
0.0,0.0,8.46,-0.0105339959264,-0.000935030169785,2.57582879066, 1520107045.88
0.0,0.0,8.46,-0.0105339959264,-0.000935030169785,2.57582879066, 1520107045.93
0.0,0.0,8.46,-0.0105339959264,-0.000935030169785,2.57582879066, 1520107045.99
0.0,0.0,8.46,-0.0105339959264,-0.000935030169785,2.57582879066, 1520107046.04
0.0,0.0,8.46,-0.0105339959264,-0.000935030169785,2.57582879066, 1520107046.09
0.0,0.0,8.46,-0.0105339959264,-0.000935030169785,2.57582879066, 1520107046.15
0.0,0.0,8.46,-0.0105339959264,-0.000935030169785,2.57582879066, 1520107046.2
0.0,0.0,8.46,-0.0105339959264,-0.000935030169785,2.57582879066, 1520107046.25
0.0,0.0,8.46,-0.0105339959264,-0.000935030169785,2.57582879066, 1520107046.3
0.0,0.0,8.46,-0.0105339959264,-0.000935030169785,2.57582879066, 1520107046.36
0.0,0.0,8.46,-0.0105339959264,-0.000935030169785,2.57582879066, 1520107046.41
0.0,0.0,8.46,-0.010479349643,-0.000965346582234,2.5765581131, 1520107046.47
0.0,0.0,8.46,-0.010479349643,-0.000965346582234,2.5765581131, 1520107046.52
0.0,0.0,8.46,-0.010479349643,-0.000965346582234,2.5765581131, 1520107046.57
0.0,0.0,8.46,-0.010479349643,-0.000965346582234,2.5765581131, 1520107046.63
0.0,0.0,8.45,-0.0109210778028,-0.000830745324492,2.57669687271, 1520107046.68
0.0,0.0,8.45,-0.0109210778028,-0.000830745324492,2.57669687271, 1520107046.74
0.0,0.0,8.45,-0.0109210778028,-0.000830745324492,2.57669687271, 1520107046.79
0.0,0.0,8.45,-0.0109210778028,-0.000830745324492,2.57669687271, 1520107046.85
0.0,0.0,8.45,-0.0109210778028,-0.000830745324492,2.57669687271, 1520107046.9
0.0,0.0,8.45,-0.0109210778028,-0.000830745324492,2.57669687271, 1520107046.95
0.0,0.0,8.44,-0.0113805495203,-0.000433123204857,2.57739830017, 1520107047.0
0.0,0.0,8.44,-0.0113805495203,-0.000433123204857,2.57739830017, 1520107047.06
0.0,0.0,8.44,-0.0113805495203,-0.000433123204857,2.57739830017, 1520107047.11
0.0,0.0,8.43,-0.0113525819033,-0.000799737870693,2.57775783539, 1520107047.16
0.0,0.0,8.43,-0.0113525819033,-0.000799737870693,2.57775783539, 1520107047.21
0.0,0.0,8.43,-0.0113525819033,-0.000799737870693,2.57775783539, 1520107047.27
0.0,0.0,8.43,-0.0113525819033,-0.000799737870693,2.57775783539, 1520107047.32
0.0,0.0,8.43,-0.0113525819033,-0.000799737870693,2.57775783539, 1520107047.38
0.0,0.0,8.42,-0.0120373554528,-0.000140257179737,2.57823753357, 1520107047.43
0.0,0.0,8.42,-0.0120373554528,-0.000140257179737,2.57823753357, 1520107047.48
0.0,0.0,8.42,-0.0120373554528,-0.000140257179737,2.57823753357, 1520107047.53
0.0,0.0,8.42,-0.0120373554528,-0.000140257179737,2.57823753357, 1520107047.59
0.0,0.0,8.42,-0.0125760361552,0.000651978421956,2.5761346817, 1520107047.64
0.0,0.0,8.42,-0.0125760361552,0.000651978421956,2.5761346817, 1520107047.7
0.0,0.0,8.42,-0.0125760361552,0.000651978421956,2.5761346817, 1520107047.75
0.0,0.0,8.42,-0.0125760361552,0.000651978421956,2.5761346817, 1520107047.8
0.0,0.0,8.42,-0.0125760361552,0.000651978421956,2.5761346817, 1520107047.85
0.0,0.0,8.42,-0.0125760361552,0.000651978421956,2.5761346817, 1520107047.9
0.0,0.0,8.42,-0.0125760361552,0.000651978421956,2.5761346817, 1520107047.96
0.0,0.0,8.42,-0.0125760361552,0.000651978421956,2.5761346817, 1520107048.01
0.0,0.0,8.42,-0.0125760361552,0.000651978421956,2.5761346817, 1520107048.06
0.0,0.0,8.42,-0.0125760361552,0.000651978421956,2.5761346817, 1520107048.11
0.0,0.0,8.4,-0.0136051047593,0.000796132255346,2.57609677315, 1520107048.16
0.0,0.0,8.4,-0.0136051047593,0.000796132255346,2.57609677315, 1520107048.21
0.0,0.0,8.4,-0.0136051047593,0.000796132255346,2.57609677315, 1520107048.26
0.0,0.0,8.4,-0.0136051047593,0.000796132255346,2.57609677315, 1520107048.32
0.0,0.0,8.4,-0.0136051047593,0.000796132255346,2.57609677315, 1520107048.37
0.0,0.0,8.4,-0.0136051047593,0.000796132255346,2.57609677315, 1520107048.42
0.0,0.0,8.39,-0.0154191246256,-0.000606703571975,2.58081245422, 1520107048.48
0.0,0.0,8.39,-0.0154191246256,-0.000606703571975,2.58081245422, 1520107048.53
0.0,0.0,8.39,-0.0154191246256,-0.000606703571975,2.58081245422, 1520107048.59
0.0,0.0,8.38,-0.0146956145763,0.00133420294151,2.57882475853, 1520107048.64
0.0,0.0,8.38,-0.0146956145763,0.00133420294151,2.57882475853, 1520107048.69
0.0,0.0,8.38,-0.0146956145763,0.00133420294151,2.57882475853, 1520107048.74
0.0,0.0,8.38,-0.0146956145763,0.00133420294151,2.57882475853, 1520107048.8
0.0,0.0,8.38,-0.0146956145763,0.00133420294151,2.57882475853, 1520107048.85
0.0,0.0,8.38,-0.0146956145763,0.00133420294151,2.57882475853, 1520107048.9
0.0,0.0,8.38,-0.0146956145763,0.00133420294151,2.57882475853, 1520107048.95
0.0,0.0,8.38,-0.0146956145763,0.00133420294151,2.57882475853, 1520107049.01
0.0,0.0,8.38,-0.0146956145763,0.00133420294151,2.57882475853, 1520107049.06
0.0,0.0,8.38,-0.0145774371922,0.00187275465578,2.5769329071, 1520107049.11
0.0,0.0,8.37,-0.0148616638035,0.00012329313904,2.5771510601, 1520107049.17
0.0,0.0,8.37,-0.0148616638035,0.00012329313904,2.5771510601, 1520107049.22
0.0,0.0,8.37,-0.0148616638035,0.00012329313904,2.5771510601, 1520107049.27
0.0,0.0,8.37,-0.0148616638035,0.00012329313904,2.5771510601, 1520107049.33
0.0,0.0,8.37,-0.0148616638035,0.00012329313904,2.5771510601, 1520107049.38
0.0,0.0,8.37,-0.0148616638035,0.00012329313904,2.5771510601, 1520107049.43
0.0,0.0,8.37,-0.011441574432,0.00228888634592,2.5692243576, 1520107049.49
0.0,0.0,8.37,-0.011441574432,0.00228888634592,2.5692243576, 1520107049.54
0.0,0.0,8.37,-0.011441574432,0.00228888634592,2.5692243576, 1520107049.59
0.0,0.0,8.37,0.0196606554091,0.00689158169553,2.56860637665, 1520107049.64
0.0,0.0,8.37,0.0196606554091,0.00689158169553,2.56860637665, 1520107049.7
0.0,0.0,8.37,0.0196606554091,0.00689158169553,2.56860637665, 1520107049.75
0.0,0.0,8.39,0.0196606554091,0.00689158169553,2.56860637665, 1520107049.8
0.0,0.0,8.39,0.0196606554091,0.00689158169553,2.56860637665, 1520107049.85
0.0,0.0,8.39,0.0196606554091,0.00689158169553,2.56860637665, 1520107049.9
0.0,0.0,8.39,0.0196606554091,0.00689158169553,2.56860637665, 1520107049.95
0.0,0.0,8.39,0.0196606554091,0.00689158169553,2.56860637665, 1520107050.01
0.0,0.0,8.39,0.0196606554091,0.00689158169553,2.56860637665, 1520107050.06
0.0,0.0,8.44,0.0132367666811,0.00737406825647,2.60484981537, 1520107050.12
0.0,0.0,8.44,0.0132367666811,0.00737406825647,2.60484981537, 1520107050.17
0.0,0.0,8.44,0.0132367666811,0.00737406825647,2.60484981537, 1520107050.23
0.0,0.0,8.44,0.0132367666811,0.00737406825647,2.60484981537, 1520107050.28
0.0,0.0,8.48,0.0132367666811,0.00737406825647,2.60484981537, 1520107050.33
0.0,0.0,8.48,0.0132367666811,0.00737406825647,2.60484981537, 1520107050.38
0.0,0.0,8.48,0.0132367666811,0.00737406825647,2.60484981537, 1520107050.44
0.0,0.0,8.48,0.00333311036229,0.00993234664202,2.58970737457, 1520107050.49
0.0,0.0,8.48,0.00333311036229,0.00993234664202,2.58970737457, 1520107050.54
0.0,0.0,8.51,-0.000237205997109,0.0252446830273,2.57142806053, 1520107050.6
0.0,0.0,8.51,-0.000237205997109,0.0252446830273,2.57142806053, 1520107050.65
0.0,0.0,8.51,-0.000237205997109,0.0252446830273,2.57142806053, 1520107050.7
0.0,0.0,8.51,-0.000237205997109,0.0252446830273,2.57142806053, 1520107050.75
0.0,0.0,8.53,-0.000237205997109,0.0252446830273,2.57142806053, 1520107050.81
0.0,0.0,8.53,-0.000237205997109,0.0252446830273,2.57142806053, 1520107050.86
0.0,0.0,8.53,-0.00952325295657,0.0504019968212,2.55600333214, 1520107050.91
0.0,0.0,8.53,-0.00952325295657,0.0504019968212,2.55600333214, 1520107050.96
0.0,0.0,8.53,-0.00952325295657,0.0504019968212,2.55600333214, 1520107051.02
0.0,0.0,8.53,-0.00952325295657,0.0504019968212,2.55600333214, 1520107051.07
0.0,0.0,8.53,-0.00952325295657,0.0504019968212,2.55600333214, 1520107051.12
0.0,0.0,8.59,-0.00952325295657,0.0504019968212,2.55600333214, 1520107051.18
0.0,0.0,8.59,-0.0248385109007,0.0437996834517,2.56956243515, 1520107051.23
0.0,0.0,8.59,-0.0248385109007,0.0437996834517,2.56956243515, 1520107051.28
0.0,0.0,8.59,-0.0248385109007,0.0437996834517,2.56956243515, 1520107051.34
0.0,0.0,8.66,-0.0296165794134,0.0332943610847,2.58263063431, 1520107051.39
0.0,0.0,8.66,-0.0296165794134,0.0332943610847,2.58263063431, 1520107051.44
0.0,0.0,8.66,-0.0296165794134,0.0332943610847,2.58263063431, 1520107051.5
0.0,0.0,8.66,-0.0296165794134,0.0332943610847,2.58263063431, 1520107051.55
0.0,0.0,8.7,-0.0296165794134,0.0332943610847,2.58263063431, 1520107051.6
0.0,0.0,8.7,-0.0296165794134,0.0332943610847,2.58263063431, 1520107051.66
0.0,0.0,8.7,-0.0338984578848,0.0319918505847,2.60750675201, 1520107051.71
0.0,0.0,8.7,-0.0338984578848,0.0319918505847,2.60750675201, 1520107051.76
0.0,0.0,8.7,-0.0338984578848,0.0319918505847,2.60750675201, 1520107051.81
0.0,0.0,8.7,-0.0338984578848,0.0319918505847,2.60750675201, 1520107051.87
0.0,0.0,8.7,-0.0338984578848,0.0319918505847,2.60750675201, 1520107051.92
0.0,0.0,8.76,-0.0335681438446,0.038959544152,2.59899258614, 1520107051.97
0.0,0.0,8.76,-0.0335681438446,0.038959544152,2.59899258614, 1520107052.03
0.0,0.0,8.76,-0.0335681438446,0.038959544152,2.59899258614, 1520107052.08
0.0,0.0,8.76,-0.0335681438446,0.038959544152,2.59899258614, 1520107052.13
0.0,0.0,8.76,-0.0335681438446,0.038959544152,2.59899258614, 1520107052.18
0.0,0.0,8.8,-0.0365295186639,0.0510711595416,2.60265398026, 1520107052.24
0.0,0.0,8.8,-0.0365295186639,0.0510711595416,2.60265398026, 1520107052.29
0.0,0.0,8.8,-0.0365295186639,0.0510711595416,2.60265398026, 1520107052.34
0.0,0.0,8.8,-0.0365295186639,0.0510711595416,2.60265398026, 1520107052.4
0.0,0.0,8.95,-0.03857190907,0.046829380095,2.60630822182, 1520107052.45
0.0,0.0,8.95,-0.03857190907,0.046829380095,2.60630822182, 1520107052.5
0.0,0.0,8.95,-0.03857190907,0.046829380095,2.60630822182, 1520107052.56
0.0,0.0,8.95,-0.03857190907,0.046829380095,2.60630822182, 1520107052.61
0.0,0.0,8.95,-0.03857190907,0.046829380095,2.60630822182, 1520107052.66
0.0,0.0,8.95,-0.03857190907,0.046829380095,2.60630822182, 1520107052.71
0.0,0.0,9.04,-0.0408715829253,0.041902333498,2.61868619919, 1520107052.77
0.0,0.0,9.04,-0.0408715829253,0.041902333498,2.61868619919, 1520107052.82
0.0,0.0,9.04,-0.0408715829253,0.041902333498,2.61868619919, 1520107052.87
0.0,0.0,9.04,-0.0408715829253,0.041902333498,2.61868619919, 1520107052.93
0.0,0.0,9.17,-0.0319775491953,0.0631336271763,2.6328701973, 1520107052.98
0.0,0.0,9.17,-0.0319775491953,0.0631336271763,2.6328701973, 1520107053.03
0.0,0.0,9.17,-0.0319775491953,0.0631336271763,2.6328701973, 1520107053.09
0.0,0.0,9.17,-0.0319775491953,0.0631336271763,2.6328701973, 1520107053.14
0.0,0.0,9.17,-0.0319775491953,0.0631336271763,2.6328701973, 1520107053.19
0.0,0.0,9.17,-0.0319775491953,0.0631336271763,2.6328701973, 1520107053.24
0.0,0.0,9.24,-0.049802403897,0.0610492452979,2.65807890892, 1520107053.3
0.0,0.0,9.24,-0.049802403897,0.0610492452979,2.65807890892, 1520107053.35
0.0,0.0,9.24,-0.049802403897,0.0610492452979,2.65807890892, 1520107053.4
0.0,0.0,9.23,-0.049802403897,0.0610492452979,2.65807890892, 1520107053.45
0.0,0.0,9.23,-0.049802403897,0.0610492452979,2.65807890892, 1520107053.5
0.0,0.0,9.23,-0.0765918642282,0.0272234790027,2.68782997131, 1520107053.56
0.0,0.0,9.23,-0.0765918642282,0.0272234790027,2.68782997131, 1520107053.61
0.0,0.0,9.23,-0.0765918642282,0.0272234790027,2.68782997131, 1520107053.67
0.0,0.0,9.23,-0.0765918642282,0.0272234790027,2.68782997131, 1520107053.72
0.0,0.0,9.23,-0.0657979398966,0.0167799592018,2.69991636276, 1520107053.77
0.0,0.0,9.23,-0.0657979398966,0.0167799592018,2.69991636276, 1520107053.83
0.0,0.0,9.23,-0.0657979398966,0.0167799592018,2.69991636276, 1520107053.88
0.0,0.0,9.23,-0.0657979398966,0.0167799592018,2.69991636276, 1520107053.93
0.0,0.0,9.23,-0.0657979398966,0.0167799592018,2.69991636276, 1520107053.98
0.0,0.0,9.21,-0.0494864620268,0.0263061188161,2.71329092979, 1520107054.03
0.0,0.0,9.21,-0.0494864620268,0.0263061188161,2.71329092979, 1520107054.08
0.0,0.0,9.21,-0.0494864620268,0.0263061188161,2.71329092979, 1520107054.14
0.0,0.0,9.21,-0.0494864620268,0.0263061188161,2.71329092979, 1520107054.19
0.0,0.0,9.21,-0.0494864620268,0.0263061188161,2.71329092979, 1520107054.24
0.0,0.0,9.21,-0.0494864620268,0.0263061188161,2.71329092979, 1520107054.3
0.0,0.0,9.28,-0.0460558533669,0.0335696227849,2.72627305984, 1520107054.35
0.0,0.0,9.28,-0.0460558533669,0.0335696227849,2.72627305984, 1520107054.4
0.0,0.0,9.28,-0.0460558533669,0.0335696227849,2.72627305984, 1520107054.45
0.0,0.0,9.28,-0.0460558533669,0.0335696227849,2.72627305984, 1520107054.51
0.0,0.0,9.34,-0.0656879395247,0.0403055027127,2.74057245255, 1520107054.56
0.0,0.0,9.34,-0.0656879395247,0.0403055027127,2.74057245255, 1520107054.61
0.0,0.0,9.34,-0.0656879395247,0.0403055027127,2.74057245255, 1520107054.67
0.0,0.0,9.43,-0.0819184780121,0.0514618195593,2.75049090385, 1520107054.72
0.0,0.0,9.43,-0.0819184780121,0.0514618195593,2.75049090385, 1520107054.77
0.0,0.0,9.43,-0.0819184780121,0.0514618195593,2.75049090385, 1520107054.83
0.0,0.0,9.43,-0.0819184780121,0.0514618195593,2.75049090385, 1520107054.88
0.0,0.0,9.43,-0.0819184780121,0.0514618195593,2.75049090385, 1520107054.93
0.0,0.0,9.43,-0.0819184780121,0.0514618195593,2.75049090385, 1520107054.98
0.0,0.0,9.52,-0.0959120467305,0.0548994094133,2.76146697998, 1520107055.03
0.0,0.0,9.52,-0.0959120467305,0.0548994094133,2.76146697998, 1520107055.09
0.0,0.0,9.52,-0.0959120467305,0.0548994094133,2.76146697998, 1520107055.14
0.0,0.0,9.52,-0.0959120467305,0.0548994094133,2.76146697998, 1520107055.19
0.0,0.0,9.52,-0.0959120467305,0.0548994094133,2.76146697998, 1520107055.24
0.0,0.0,9.52,-0.0959120467305,0.0548994094133,2.76146697998, 1520107055.3
0.0,0.0,9.59,-0.0919769406319,0.0570886060596,2.77009630203, 1520107055.35
0.0,0.0,9.59,-0.0919769406319,0.0570886060596,2.77009630203, 1520107055.4
0.0,0.0,9.59,-0.0919769406319,0.0570886060596,2.77009630203, 1520107055.45
0.0,0.0,9.68,-0.079668007791,0.0537021756172,2.78090190887, 1520107055.51
0.0,0.0,9.68,-0.079668007791,0.0537021756172,2.78090190887, 1520107055.56
0.0,0.0,9.68,-0.079668007791,0.0537021756172,2.78090190887, 1520107055.61
0.0,0.0,9.68,-0.079668007791,0.0537021756172,2.78090190887, 1520107055.66
0.0,0.0,9.68,-0.079668007791,0.0537021756172,2.78090190887, 1520107055.72
0.0,0.0,9.77,-0.079668007791,0.0537021756172,2.78090190887, 1520107055.77
0.0,0.0,9.77,-0.079668007791,0.0537021756172,2.78090190887, 1520107055.83
0.0,0.0,9.77,-0.0702942609787,0.0527009405196,2.79088783264, 1520107055.88
0.0,0.0,9.77,-0.0702942609787,0.0527009405196,2.79088783264, 1520107055.93
0.0,0.0,9.77,-0.0702942609787,0.0527009405196,2.79088783264, 1520107055.98
0.0,0.0,9.85,-0.0601023435593,0.0425672233105,2.80009412766, 1520107056.04
0.0,0.0,9.85,-0.0601023435593,0.0425672233105,2.80009412766, 1520107056.09
0.0,0.0,9.85,-0.0601023435593,0.0425672233105,2.80009412766, 1520107056.14
0.0,0.0,9.85,-0.0601023435593,0.0425672233105,2.80009412766, 1520107056.2
0.0,0.0,9.85,-0.0601023435593,0.0425672233105,2.80009412766, 1520107056.25
0.0,0.0,9.85,-0.0601023435593,0.0425672233105,2.80009412766, 1520107056.3
0.0,0.0,9.85,-0.0601023435593,0.0425672233105,2.80009412766, 1520107056.35
0.0,0.0,9.85,-0.0601023435593,0.0425672233105,2.80009412766, 1520107056.4
0.0,0.0,9.95,-0.0660498663783,0.0313314981759,2.81212496758, 1520107056.45
0.0,0.0,9.95,-0.0660498663783,0.0313314981759,2.81212496758, 1520107056.51
0.0,0.0,10.04,-0.0747553259134,0.0264736413956,2.82439446449, 1520107056.56
0.0,0.0,10.04,-0.0747553259134,0.0264736413956,2.82439446449, 1520107056.61
0.0,0.0,10.04,-0.0747553259134,0.0264736413956,2.82439446449, 1520107056.66
0.0,0.0,10.04,-0.0747553259134,0.0264736413956,2.82439446449, 1520107056.71
0.0,0.0,10.04,-0.0747553259134,0.0264736413956,2.82439446449, 1520107056.77
0.0,0.0,10.04,-0.0747553259134,0.0264736413956,2.82439446449, 1520107056.82
0.0,0.0,10.08,-0.0749499052763,0.0493412800133,2.83683419228, 1520107056.88
0.0,0.0,10.08,-0.0749499052763,0.0493412800133,2.83683419228, 1520107056.93
0.0,0.0,10.08,-0.0749499052763,0.0493412800133,2.83683419228, 1520107056.98
0.0,0.0,10.12,-0.0754111409187,0.0614078864455,2.845505476, 1520107057.03
0.0,0.0,10.12,-0.0754111409187,0.0614078864455,2.845505476, 1520107057.08
0.0,0.0,10.12,-0.0754111409187,0.0614078864455,2.845505476, 1520107057.13
0.0,0.0,10.12,-0.0754111409187,0.0614078864455,2.845505476, 1520107057.19
0.0,0.0,10.12,-0.0754111409187,0.0614078864455,2.845505476, 1520107057.24
0.0,0.0,10.12,-0.0754111409187,0.0614078864455,2.845505476, 1520107057.29
0.0,0.0,10.12,-0.0754111409187,0.0614078864455,2.845505476, 1520107057.35
0.0,0.0,10.12,-0.0754111409187,0.0614078864455,2.845505476, 1520107057.4
0.0,0.0,10.17,-0.0599082075059,0.055583871901,2.85684633255, 1520107057.45
0.0,0.0,10.17,-0.0599082075059,0.055583871901,2.85684633255, 1520107057.5
0.0,0.0,10.23,-0.0502109900117,0.0492991507053,2.86454963684, 1520107057.56
0.0,0.0,10.23,-0.0502109900117,0.0492991507053,2.86454963684, 1520107057.61
0.0,0.0,10.23,-0.0502109900117,0.0492991507053,2.86454963684, 1520107057.66
0.0,0.0,10.23,-0.0502109900117,0.0492991507053,2.86454963684, 1520107057.72
0.0,0.0,10.23,-0.0502109900117,0.0492991507053,2.86454963684, 1520107057.77
0.0,0.0,10.29,-0.0448050461709,0.0266239717603,2.87207531929, 1520107057.83
0.0,0.0,10.29,-0.0448050461709,0.0266239717603,2.87207531929, 1520107057.88
0.0,0.0,10.29,-0.0448050461709,0.0266239717603,2.87207531929, 1520107057.93
0.0,0.0,10.29,-0.0448050461709,0.0266239717603,2.87207531929, 1520107057.99
0.0,0.0,10.38,-0.0448050461709,0.0266239717603,2.87207531929, 1520107058.04
0.0,0.0,10.38,-0.0448050461709,0.0266239717603,2.87207531929, 1520107058.1
0.0,0.0,10.38,-0.0302849281579,0.0135058742017,2.87925863266, 1520107058.15
0.0,0.0,10.38,-0.0302849281579,0.0135058742017,2.87925863266, 1520107058.2
0.0,0.0,10.38,-0.0302849281579,0.0135058742017,2.87925863266, 1520107058.25
0.0,0.0,10.38,-0.0302849281579,0.0135058742017,2.87925863266, 1520107058.3
0.0,0.0,10.38,-0.0302849281579,0.0135058742017,2.87925863266, 1520107058.36
0.0,0.0,10.38,-0.0302849281579,0.0135058742017,2.87925863266, 1520107058.41
0.0,0.0,10.38,-0.0302849281579,0.0135058742017,2.87925863266, 1520107058.46
0.0,0.0,10.5,-0.0250590443611,0.0411527603865,2.88504552841, 1520107058.51
0.0,0.0,10.5,-0.0250590443611,0.0411527603865,2.88504552841, 1520107058.57
0.0,0.0,10.5,-0.0253145787865,0.0628148540854,2.89098000526, 1520107058.62
0.0,0.0,10.5,-0.0253145787865,0.0628148540854,2.89098000526, 1520107058.67
0.0,0.0,10.5,-0.0253145787865,0.0628148540854,2.89098000526, 1520107058.73
0.0,0.0,10.5,-0.0253145787865,0.0628148540854,2.89098000526, 1520107058.78
0.0,0.0,10.5,-0.0253145787865,0.0628148540854,2.89098000526, 1520107058.83
0.0,0.0,10.53,-0.0246976576746,0.0528729334474,2.89722490311, 1520107058.88
0.0,0.0,10.53,-0.0246976576746,0.0528729334474,2.89722490311, 1520107058.94
0.0,0.0,10.53,-0.0246976576746,0.0528729334474,2.89722490311, 1520107058.99
0.0,0.0,10.53,-0.0246976576746,0.0528729334474,2.89722490311, 1520107059.04
0.0,0.0,10.53,-0.0246976576746,0.0528729334474,2.89722490311, 1520107059.1
0.0,0.0,10.55,-0.0142836887389,0.0209890194237,2.90216588974, 1520107059.15
0.0,0.0,10.55,-0.0142836887389,0.0209890194237,2.90216588974, 1520107059.2
0.0,0.0,10.55,-0.0142836887389,0.0209890194237,2.90216588974, 1520107059.26
0.0,0.0,10.55,-0.0142836887389,0.0209890194237,2.90216588974, 1520107059.31
0.0,0.0,10.55,-0.0142836887389,0.0209890194237,2.90216588974, 1520107059.36
0.0,0.0,10.55,-0.0142836887389,0.0209890194237,2.90216588974, 1520107059.41
0.0,0.0,10.55,-0.0142836887389,0.0209890194237,2.90216588974, 1520107059.47
0.0,0.0,10.56,-0.0110659170896,0.0138637423515,2.90695977211, 1520107059.52
0.0,0.0,10.56,-0.0110659170896,0.0138637423515,2.90695977211, 1520107059.57
0.0,0.0,10.58,-0.0163279436529,0.0260298699141,2.91007423401, 1520107059.63
0.0,0.0,10.58,-0.0163279436529,0.0260298699141,2.91007423401, 1520107059.68
0.0,0.0,10.58,-0.0163279436529,0.0260298699141,2.91007423401, 1520107059.73
0.0,0.0,10.58,-0.0163279436529,0.0260298699141,2.91007423401, 1520107059.79
0.0,0.0,10.58,-0.0163279436529,0.0260298699141,2.91007423401, 1520107059.84
0.0,0.0,10.61,-0.0156377069652,0.0330279245973,2.91349005699, 1520107059.89
0.0,0.0,10.61,-0.0156377069652,0.0330279245973,2.91349005699, 1520107059.95
0.0,0.0,10.61,-0.0156377069652,0.0330279245973,2.91349005699, 1520107060.0
0.0,0.0,10.61,-0.0156377069652,0.0330279245973,2.91349005699, 1520107060.05
0.0,0.0,10.61,-0.0156377069652,0.0330279245973,2.91349005699, 1520107060.11
0.0,0.0,10.64,-0.00668552378193,0.0401554070413,2.91763091087, 1520107060.16
0.0,0.0,10.64,-0.00668552378193,0.0401554070413,2.91763091087, 1520107060.21
0.0,0.0,10.64,-0.00668552378193,0.0401554070413,2.91763091087, 1520107060.26
0.0,0.0,10.64,-0.00668552378193,0.0401554070413,2.91763091087, 1520107060.31
0.0,0.0,10.67,-0.00150190480053,0.0469978563488,2.92083239555, 1520107060.37
0.0,0.0,10.67,-0.00150190480053,0.0469978563488,2.92083239555, 1520107060.42
0.0,0.0,10.67,-0.00150190480053,0.0469978563488,2.92083239555, 1520107060.48
0.0,0.0,10.67,-0.00150190480053,0.0469978563488,2.92083239555, 1520107060.53
0.0,0.0,10.67,-0.00150190480053,0.0469978563488,2.92083239555, 1520107060.58
0.0,0.0,10.67,0.00573633052409,0.0185800269246,2.92412900925, 1520107060.63
0.0,0.0,10.67,0.00573633052409,0.0185800269246,2.92412900925, 1520107060.68
0.0,0.0,10.67,0.00573633052409,0.0185800269246,2.92412900925, 1520107060.73
0.0,0.0,10.67,0.00573633052409,0.0185800269246,2.92412900925, 1520107060.79
0.0,0.0,10.68,0.00573633052409,0.0185800269246,2.92412900925, 1520107060.84
0.0,0.0,10.68,0.00573633052409,0.0185800269246,2.92412900925, 1520107060.89
0.0,0.0,10.68,0.00573633052409,0.0185800269246,2.92412900925, 1520107060.95
0.0,0.0,10.68,0.0148472767323,0.0208641793579,2.9277408123, 1520107061.0
0.0,0.0,10.68,0.0148472767323,0.0208641793579,2.9277408123, 1520107061.05
0.0,0.0,10.68,0.0148472767323,0.0208641793579,2.9277408123, 1520107061.1
0.0,0.0,10.67,0.00795503146946,0.05269709602,2.93134737015, 1520107061.16
0.0,0.0,10.67,0.00795503146946,0.05269709602,2.93134737015, 1520107061.21
0.0,0.0,10.67,0.00795503146946,0.05269709602,2.93134737015, 1520107061.26
0.0,0.0,10.67,0.00795503146946,0.05269709602,2.93134737015, 1520107061.31
0.0,0.0,10.66,0.00795503146946,0.05269709602,2.93134737015, 1520107061.36
0.0,0.0,10.66,0.00795503146946,0.05269709602,2.93134737015, 1520107061.42
0.0,0.0,10.66,0.00795503146946,0.05269709602,2.93134737015, 1520107061.47
0.0,0.0,10.66,0.00795503146946,0.05269709602,2.93134737015, 1520107061.52
0.0,0.0,10.66,0.00795503146946,0.05269709602,2.93134737015, 1520107061.58
0.0,0.0,10.63,0.0415355488658,0.0409921556711,2.93493390083, 1520107061.63
0.0,0.0,10.63,0.0415355488658,0.0409921556711,2.93493390083, 1520107061.68
0.0,0.0,10.63,0.0415355488658,0.0409921556711,2.93493390083, 1520107061.73
0.0,0.0,10.63,0.0415355488658,0.0409921556711,2.93493390083, 1520107061.78
0.0,0.0,10.63,0.0415355488658,0.0409921556711,2.93493390083, 1520107061.84
0.0,0.0,10.63,0.0415355488658,0.0409921556711,2.93493390083, 1520107061.89
0.0,0.0,10.63,0.076925650239,0.0286692157388,2.93719363213, 1520107061.94
0.0,0.0,10.63,0.076925650239,0.0286692157388,2.93719363213, 1520107062.0
0.0,0.0,10.63,0.076925650239,0.0286692157388,2.93719363213, 1520107062.05
0.0,0.0,10.63,0.076925650239,0.0286692157388,2.93719363213, 1520107062.1
0.0,0.0,10.6,0.0539702177048,0.0250432901084,2.93658256531, 1520107062.15
0.0,0.0,10.6,0.0539702177048,0.0250432901084,2.93658256531, 1520107062.2
0.0,0.0,10.6,0.0539702177048,0.0250432901084,2.93658256531, 1520107062.26
0.0,0.0,10.6,0.0539702177048,0.0250432901084,2.93658256531, 1520107062.31
0.0,0.0,10.59,0.0333903692663,0.0264257341623,2.93829107285, 1520107062.37
0.0,0.0,10.59,0.0333903692663,0.0264257341623,2.93829107285, 1520107062.42
0.0,0.0,10.59,0.0333903692663,0.0264257341623,2.93829107285, 1520107062.47
0.0,0.0,10.59,0.0333903692663,0.0264257341623,2.93829107285, 1520107062.53
0.0,0.0,10.59,0.0333903692663,0.0264257341623,2.93829107285, 1520107062.58
0.0,0.0,10.59,0.0333903692663,0.0264257341623,2.93829107285, 1520107062.63
0.0,0.0,10.56,0.0193882472813,0.0313803777099,2.9402422905, 1520107062.68
0.0,0.0,10.56,0.0193882472813,0.0313803777099,2.9402422905, 1520107062.73
0.0,0.0,10.56,0.0193882472813,0.0313803777099,2.9402422905, 1520107062.78
0.0,0.0,10.5,0.0113523192704,0.0353361777961,2.94215106964, 1520107062.84
0.0,0.0,10.5,0.0113523192704,0.0353361777961,2.94215106964, 1520107062.89
0.0,0.0,10.5,0.0113523192704,0.0353361777961,2.94215106964, 1520107062.94
0.0,0.0,10.5,0.0113523192704,0.0353361777961,2.94215106964, 1520107062.99
0.0,0.0,10.5,0.0113523192704,0.0353361777961,2.94215106964, 1520107063.04
0.0,0.0,10.5,0.0113523192704,0.0353361777961,2.94215106964, 1520107063.1
0.0,0.0,10.46,0.00860383547843,0.0357597619295,2.94258284569, 1520107063.15
0.0,0.0,10.46,0.00860383547843,0.0357597619295,2.94258284569, 1520107063.21
0.0,0.0,10.46,0.00860383547843,0.0357597619295,2.94258284569, 1520107063.26
0.0,0.0,10.46,0.00860383547843,0.0357597619295,2.94258284569, 1520107063.31
0.0,0.0,10.44,0.00860383547843,0.0357597619295,2.94258284569, 1520107063.36
0.0,0.0,10.44,0.00860383547843,0.0357597619295,2.94258284569, 1520107063.41
0.0,0.0,10.44,0.00992029346526,0.0258130021393,2.94323587418, 1520107063.46
0.0,0.0,10.44,0.00992029346526,0.0258130021393,2.94323587418, 1520107063.52
0.0,0.0,10.44,0.00992029346526,0.0258130021393,2.94323587418, 1520107063.57
0.0,0.0,10.44,0.00992029346526,0.0258130021393,2.94323587418, 1520107063.62
0.0,0.0,10.44,0.00992029346526,0.0258130021393,2.94323587418, 1520107063.67
0.0,0.0,10.44,0.00992029346526,0.0258130021393,2.94323587418, 1520107063.73
0.0,0.0,10.4,0.0176652595401,0.0239705704153,2.94222426414, 1520107063.78
0.0,0.0,10.4,0.0176652595401,0.0239705704153,2.94222426414, 1520107063.83
0.0,0.0,10.4,0.0176652595401,0.0239705704153,2.94222426414, 1520107063.88
0.0,0.0,10.39,0.0210868511349,0.0284667722881,2.94313669205, 1520107063.93
0.0,0.0,10.39,0.0210868511349,0.0284667722881,2.94313669205, 1520107063.99
0.0,0.0,10.39,0.0210868511349,0.0284667722881,2.94313669205, 1520107064.04
0.0,0.0,10.39,0.0210868511349,0.0284667722881,2.94313669205, 1520107064.09
0.0,0.0,10.38,0.0210868511349,0.0284667722881,2.94313669205, 1520107064.15
0.0,0.0,10.38,0.0210868511349,0.0284667722881,2.94313669205, 1520107064.2
0.0,0.0,10.38,0.0383099764585,0.0305764488876,2.94273924828, 1520107064.25
0.0,0.0,10.38,0.0383099764585,0.0305764488876,2.94273924828, 1520107064.3
0.0,0.0,10.38,0.0383099764585,0.0305764488876,2.94273924828, 1520107064.35
0.0,0.0,10.38,0.0383099764585,0.0305764488876,2.94273924828, 1520107064.41
0.0,0.0,10.37,0.0431294478476,0.0325377471745,2.9426074028, 1520107064.46
0.0,0.0,10.37,0.0431294478476,0.0325377471745,2.9426074028, 1520107064.51
0.0,0.0,10.37,0.0431294478476,0.0325377471745,2.9426074028, 1520107064.56
0.0,0.0,10.37,0.0431294478476,0.0325377471745,2.9426074028, 1520107064.61
0.0,0.0,10.37,0.0431294478476,0.0325377471745,2.9426074028, 1520107064.66
0.0,0.0,10.37,0.0431294478476,0.0325377471745,2.9426074028, 1520107064.72
0.0,0.0,10.38,0.0431294478476,0.0325377471745,2.9426074028, 1520107064.77
0.0,0.0,10.38,0.0226944033056,0.0377981439233,2.94127392769, 1520107064.82
0.0,0.0,10.38,0.0226944033056,0.0377981439233,2.94127392769, 1520107064.87
0.0,0.0,10.38,0.0226944033056,0.0377981439233,2.94127392769, 1520107064.93
0.0,0.0,10.37,0.00686832610518,0.0472638644278,2.94278526306, 1520107064.98
0.0,0.0,10.37,0.00686832610518,0.0472638644278,2.94278526306, 1520107065.03
0.0,0.0,10.37,0.00686832610518,0.0472638644278,2.94278526306, 1520107065.09
0.0,0.0,10.37,0.00686832610518,0.0472638644278,2.94278526306, 1520107065.14
0.0,0.0,10.37,0.00686832610518,0.0472638644278,2.94278526306, 1520107065.19
0.0,0.0,10.37,0.00686832610518,0.0472638644278,2.94278526306, 1520107065.25
0.0,0.0,10.37,0.00119297020137,0.0461984835565,2.94148659706, 1520107065.31
0.0,0.0,10.37,0.00119297020137,0.0461984835565,2.94148659706, 1520107065.36
0.0,0.0,10.37,0.00119297020137,0.0461984835565,2.94148659706, 1520107065.41
0.0,0.0,10.34,0.0011475617066,0.0353087857366,2.94174933434, 1520107065.47
0.0,0.0,10.34,0.0011475617066,0.0353087857366,2.94174933434, 1520107065.52
0.0,0.0,10.34,0.0011475617066,0.0353087857366,2.94174933434, 1520107065.57
0.0,0.0,10.34,0.0011475617066,0.0353087857366,2.94174933434, 1520107065.62
0.0,0.0,10.34,0.0011475617066,0.0353087857366,2.94174933434, 1520107065.68
0.0,0.0,10.34,0.0011475617066,0.0353087857366,2.94174933434, 1520107065.73
0.0,0.0,10.34,0.0011475617066,0.0353087857366,2.94174933434, 1520107065.78
0.0,0.0,10.34,0.0011475617066,0.0353087857366,2.94174933434, 1520107065.83
0.0,0.0,10.33,-0.000744481105357,0.0338422618806,2.94179153442, 1520107065.89
0.0,0.0,10.33,-0.000744481105357,0.0338422618806,2.94179153442, 1520107065.94
0.0,0.0,10.33,-0.000255058985204,0.0328953377903,2.94111061096, 1520107065.99
0.0,0.0,10.33,-0.000255058985204,0.0328953377903,2.94111061096, 1520107066.05
0.0,0.0,10.33,-0.000255058985204,0.0328953377903,2.94111061096, 1520107066.1
0.0,0.0,10.33,-0.000255058985204,0.0328953377903,2.94111061096, 1520107066.15
0.0,0.0,10.33,-0.000255058985204,0.0328953377903,2.94111061096, 1520107066.21
0.0,0.0,10.31,-0.000721832271665,0.029657304287,2.94219064713, 1520107066.26
0.0,0.0,10.31,-0.000721832271665,0.029657304287,2.94219064713, 1520107066.31
0.0,0.0,10.31,-0.000721832271665,0.029657304287,2.94219064713, 1520107066.37
0.0,0.0,10.31,-0.000721832271665,0.029657304287,2.94219064713, 1520107066.42
0.0,0.0,10.32,4.44846227765e-05,0.0231575556099,2.94170260429, 1520107066.47
0.0,0.0,10.32,4.44846227765e-05,0.0231575556099,2.94170260429, 1520107066.53
0.0,0.0,10.32,4.44846227765e-05,0.0231575556099,2.94170260429, 1520107066.58
0.0,0.0,10.32,4.44846227765e-05,0.0231575556099,2.94170260429, 1520107066.63
0.0,0.0,10.33,4.44846227765e-05,0.0231575556099,2.94170260429, 1520107066.69
0.0,0.0,10.33,4.44846227765e-05,0.0231575556099,2.94170260429, 1520107066.74
0.0,0.0,10.33,4.44846227765e-05,0.0231575556099,2.94170260429, 1520107066.8
0.0,0.0,10.33,4.44846227765e-05,0.0231575556099,2.94170260429, 1520107066.85
0.0,0.0,10.33,-0.000450057908893,0.0301609113812,2.94250512123, 1520107066.9
0.0,0.0,10.35,-0.00699337339029,0.0476253256202,2.9421453476, 1520107066.95
0.0,0.0,10.35,-0.00699337339029,0.0476253256202,2.9421453476, 1520107067.01
0.0,0.0,10.35,-0.00699337339029,0.0476253256202,2.9421453476, 1520107067.06
0.0,0.0,10.35,-0.00699337339029,0.0476253256202,2.9421453476, 1520107067.11
0.0,0.0,10.36,-0.00699337339029,0.0476253256202,2.9421453476, 1520107067.16
0.0,0.0,10.36,-0.00699337339029,0.0476253256202,2.9421453476, 1520107067.21
0.0,0.0,10.36,-0.00699337339029,0.0476253256202,2.9421453476, 1520107067.27
0.0,0.0,10.36,-0.0102050565183,0.0471817217767,2.94216442108, 1520107067.32
0.0,0.0,10.36,-0.0102050565183,0.0471817217767,2.94216442108, 1520107067.37
0.0,0.0,10.36,-0.0102050565183,0.0471817217767,2.94216442108, 1520107067.42
0.0,0.0,10.37,-0.0087962038815,0.032226074487,2.94143486023, 1520107067.47
0.0,0.0,10.37,-0.0087962038815,0.032226074487,2.94143486023, 1520107067.53
0.0,0.0,10.37,-0.0087962038815,0.032226074487,2.94143486023, 1520107067.58
0.0,0.0,10.39,-0.0087962038815,0.032226074487,2.94143486023, 1520107067.63
0.0,0.0,10.39,-0.0087962038815,0.032226074487,2.94143486023, 1520107067.68
0.0,0.0,10.39,-0.0087962038815,0.032226074487,2.94143486023, 1520107067.74
0.0,0.0,10.39,-0.0087962038815,0.032226074487,2.94143486023, 1520107067.79
0.0,0.0,10.39,-0.0087962038815,0.032226074487,2.94143486023, 1520107067.85
0.0,0.0,10.39,-0.0087962038815,0.032226074487,2.94143486023, 1520107067.9
0.0,0.0,10.37,-0.0119215575978,0.0226163249463,2.941177845, 1520107067.95
0.0,0.0,10.37,-0.0119215575978,0.0226163249463,2.941177845, 1520107068.01
0.0,0.0,10.37,-0.0119215575978,0.0226163249463,2.941177845, 1520107068.06
0.0,0.0,10.37,-0.0119215575978,0.0226163249463,2.941177845, 1520107068.11
0.0,0.0,10.34,-0.0119215575978,0.0226163249463,2.941177845, 1520107068.16
0.0,0.0,10.34,-0.0119215575978,0.0226163249463,2.941177845, 1520107068.21
0.0,0.0,10.34,-0.0119215575978,0.0226163249463,2.941177845, 1520107068.26
0.0,0.0,10.34,-0.0119215575978,0.0226163249463,2.941177845, 1520107068.32
0.0,0.0,10.34,-0.0169918909669,0.0182380005717,2.94138002396, 1520107068.37
0.0,0.0,10.34,-0.0169918909669,0.0182380005717,2.94138002396, 1520107068.42
0.0,0.0,10.33,-0.022405423224,0.0195096358657,2.9421339035, 1520107068.48
0.0,0.0,10.33,-0.022405423224,0.0195096358657,2.9421339035, 1520107068.53
0.0,0.0,10.33,-0.022405423224,0.0195096358657,2.9421339035, 1520107068.58
0.0,0.0,10.33,-0.022405423224,0.0195096358657,2.9421339035, 1520107068.63
0.0,0.0,10.3,-0.022405423224,0.0195096358657,2.9421339035, 1520107068.68
0.0,0.0,10.3,-0.022405423224,0.0195096358657,2.9421339035, 1520107068.74
0.0,0.0,10.3,-0.028258588165,0.0232763700187,2.94214630127, 1520107068.79
0.0,0.0,10.3,-0.028258588165,0.0232763700187,2.94214630127, 1520107068.84
0.0,0.0,10.3,-0.028258588165,0.0232763700187,2.94214630127, 1520107068.9
0.0,0.0,10.3,-0.028258588165,0.0232763700187,2.94214630127, 1520107068.95
0.0,0.0,10.26,-0.0352256931365,0.0279950387776,2.94180059433, 1520107069.0
0.0,0.0,10.26,-0.0352256931365,0.0279950387776,2.94180059433, 1520107069.05
0.0,0.0,10.26,-0.0352256931365,0.0279950387776,2.94180059433, 1520107069.11
0.0,0.0,10.22,-0.0352256931365,0.0279950387776,2.94180059433, 1520107069.16
0.0,0.0,10.22,-0.0352256931365,0.0279950387776,2.94180059433, 1520107069.21
0.0,0.0,10.22,-0.0277365893126,0.0286294445395,2.94168782234, 1520107069.26
0.0,0.0,10.22,-0.0277365893126,0.0286294445395,2.94168782234, 1520107069.32
0.0,0.0,10.22,-0.0277365893126,0.0286294445395,2.94168782234, 1520107069.37
0.0,0.0,10.22,-0.0277365893126,0.0286294445395,2.94168782234, 1520107069.42
0.0,0.0,10.21,-0.0277365893126,0.0286294445395,2.94168782234, 1520107069.47
0.0,0.0,10.21,-0.0277365893126,0.0286294445395,2.94168782234, 1520107069.53
0.0,0.0,10.21,-0.0282599106431,0.0286623388529,2.94243359566, 1520107069.58
0.0,0.0,10.21,-0.0282599106431,0.0286623388529,2.94243359566, 1520107069.63
0.0,0.0,10.21,-0.0282599106431,0.0286623388529,2.94243359566, 1520107069.68
0.0,0.0,10.21,-0.0282599106431,0.0286623388529,2.94243359566, 1520107069.73
0.0,0.0,10.2,-0.0296259019524,0.0224775485694,2.9410970211, 1520107069.79
0.0,0.0,10.2,-0.0296259019524,0.0224775485694,2.9410970211, 1520107069.84
0.0,0.0,10.2,-0.0296259019524,0.0224775485694,2.9410970211, 1520107069.89
0.0,0.0,10.2,-0.0296259019524,0.0224775485694,2.9410970211, 1520107069.95
0.0,0.0,10.2,-0.0296259019524,0.0224775485694,2.9410970211, 1520107070.0
0.0,0.0,10.18,-0.0313954204321,0.0169894639403,2.94085431099, 1520107070.06
0.0,0.0,10.18,-0.0313954204321,0.0169894639403,2.94085431099, 1520107070.11
0.0,0.0,10.18,-0.0313954204321,0.0169894639403,2.94085431099, 1520107070.16
0.0,0.0,10.18,-0.0313954204321,0.0169894639403,2.94085431099, 1520107070.22
0.0,0.0,10.16,-0.0314361639321,0.00990650430322,2.94118571281, 1520107070.27
0.0,0.0,10.16,-0.0314361639321,0.00990650430322,2.94118571281, 1520107070.32
0.0,0.0,10.16,-0.0314361639321,0.00990650430322,2.94118571281, 1520107070.38
0.0,0.0,10.16,-0.0314361639321,0.00990650430322,2.94118571281, 1520107070.43
0.0,0.0,10.15,-0.0314361639321,0.00990650430322,2.94118571281, 1520107070.48
0.0,0.0,10.15,-0.0287504643202,0.0100141037256,2.94092702866, 1520107070.54
0.0,0.0,10.15,-0.0287504643202,0.0100141037256,2.94092702866, 1520107070.59
0.0,0.0,10.15,-0.0287504643202,0.0100141037256,2.94092702866, 1520107070.65
0.0,0.0,10.15,-0.0287504643202,0.0100141037256,2.94092702866, 1520107070.7
0.0,0.0,10.12,-0.026344390586,0.0140210967511,2.94007849693, 1520107070.75
0.0,0.0,10.12,-0.026344390586,0.0140210967511,2.94007849693, 1520107070.81
0.0,0.0,10.12,-0.026344390586,0.0140210967511,2.94007849693, 1520107070.86
0.0,0.0,10.12,-0.026344390586,0.0140210967511,2.94007849693, 1520107070.91
0.0,0.0,10.12,-0.026344390586,0.0140210967511,2.94007849693, 1520107070.96
0.0,0.0,10.12,-0.026344390586,0.0140210967511,2.94007849693, 1520107071.02
0.0,0.0,10.13,-0.024352107197,0.0101947197691,2.93881464005, 1520107071.07
0.0,0.0,10.13,-0.024352107197,0.0101947197691,2.93881464005, 1520107071.12
0.0,0.0,10.13,-0.024352107197,0.0101947197691,2.93881464005, 1520107071.17
0.0,0.0,10.14,-0.0243837796152,0.0202580671757,2.939442873, 1520107071.23
0.0,0.0,10.14,-0.0243837796152,0.0202580671757,2.939442873, 1520107071.28
0.0,0.0,10.14,-0.0243837796152,0.0202580671757,2.939442873, 1520107071.33
0.0,0.0,10.14,-0.0243837796152,0.0202580671757,2.939442873, 1520107071.39
0.0,0.0,10.17,-0.0243837796152,0.0202580671757,2.939442873, 1520107071.44
0.0,0.0,10.17,-0.0243837796152,0.0202580671757,2.939442873, 1520107071.49
0.0,0.0,10.17,-0.0243837796152,0.0202580671757,2.939442873, 1520107071.55
0.0,0.0,10.17,-0.0295880138874,0.0313458442688,2.93940210342, 1520107071.6
0.0,0.0,10.17,-0.0295880138874,0.0313458442688,2.93940210342, 1520107071.65
0.0,0.0,10.17,-0.0295880138874,0.0313458442688,2.93940210342, 1520107071.7
0.0,0.0,10.17,-0.0295880138874,0.0313458442688,2.93940210342, 1520107071.76
0.0,0.0,10.2,-0.0291750244796,0.0157764218748,2.93876624107, 1520107071.81
0.0,0.0,10.2,-0.0291750244796,0.0157764218748,2.93876624107, 1520107071.87
0.0,0.0,10.2,-0.0291750244796,0.0157764218748,2.93876624107, 1520107071.92
0.0,0.0,10.2,-0.0291750244796,0.0157764218748,2.93876624107, 1520107071.98
0.0,0.0,10.2,-0.0291750244796,0.0157764218748,2.93876624107, 1520107072.03
0.0,0.0,10.2,-0.0291750244796,0.0157764218748,2.93876624107, 1520107072.08
0.0,0.0,10.2,-0.0291750244796,0.0157764218748,2.93876624107, 1520107072.14
0.0,0.0,10.23,-0.0291750244796,0.0157764218748,2.93876624107, 1520107072.19
0.0,0.0,10.23,-0.0193837098777,0.00373220909387,2.93960261345, 1520107072.24
0.0,0.0,10.27,-0.0153673766181,0.00654028309509,2.93911123276, 1520107072.3
0.0,0.0,10.27,-0.0153673766181,0.00654028309509,2.93911123276, 1520107072.35
0.0,0.0,10.27,-0.0153673766181,0.00654028309509,2.93911123276, 1520107072.4
0.0,0.0,10.27,-0.0153673766181,0.00654028309509,2.93911123276, 1520107072.46
0.0,0.0,10.27,-0.0153673766181,0.00654028309509,2.93911123276, 1520107072.51
0.0,0.0,10.31,-0.0153673766181,0.00654028309509,2.93911123276, 1520107072.56
0.0,0.0,10.31,-0.00955553445965,0.0158549100161,2.941375494, 1520107072.62
0.0,0.0,10.31,-0.00955553445965,0.0158549100161,2.941375494, 1520107072.67
0.0,0.0,10.31,-0.00955553445965,0.0158549100161,2.941375494, 1520107072.73
0.0,0.0,10.31,-0.00955553445965,0.0158549100161,2.941375494, 1520107072.78
0.0,0.0,10.36,-0.00302104372531,0.0185566656291,2.94140386581, 1520107072.83
0.0,0.0,10.36,-0.00302104372531,0.0185566656291,2.94140386581, 1520107072.89
0.0,0.0,10.36,-0.00302104372531,0.0185566656291,2.94140386581, 1520107072.94
0.0,0.0,10.42,-0.00302104372531,0.0185566656291,2.94140386581, 1520107072.99
0.0,0.0,10.42,-0.00302104372531,0.0185566656291,2.94140386581, 1520107073.04
0.0,0.0,10.42,-0.00302104372531,0.0185566656291,2.94140386581, 1520107073.09
0.0,0.0,10.42,-0.00302104372531,0.0185566656291,2.94140386581, 1520107073.15
0.0,0.0,10.42,-0.00133144110441,0.0182729754597,2.94289016724, 1520107073.2
0.0,0.0,10.42,-0.00133144110441,0.0182729754597,2.94289016724, 1520107073.25
0.0,0.0,10.47,-0.00193445524201,0.0101123135537,2.9446284771, 1520107073.3
0.0,0.0,10.47,-0.00193445524201,0.0101123135537,2.9446284771, 1520107073.36
0.0,0.0,10.47,-0.00193445524201,0.0101123135537,2.9446284771, 1520107073.41
0.0,0.0,10.51,-0.00193445524201,0.0101123135537,2.9446284771, 1520107073.46
0.0,0.0,10.51,-0.00193445524201,0.0101123135537,2.9446284771, 1520107073.51
0.0,0.0,10.51,-0.00193445524201,0.0101123135537,2.9446284771, 1520107073.57
0.0,0.0,10.51,-0.00193445524201,0.0101123135537,2.9446284771, 1520107073.62
0.0,0.0,10.51,-0.00193445524201,0.0101123135537,2.9446284771, 1520107073.67
0.0,0.0,10.51,-0.00193445524201,0.0101123135537,2.9446284771, 1520107073.73
0.0,0.0,10.51,-0.00193445524201,0.0101123135537,2.9446284771, 1520107073.78
0.0,0.0,10.51,-0.00193445524201,0.0101123135537,2.9446284771, 1520107073.83
0.0,0.0,10.51,-0.00193445524201,0.0101123135537,2.9446284771, 1520107073.88
0.0,0.0,10.51,-0.00193445524201,0.0101123135537,2.9446284771, 1520107073.93
0.0,0.0,10.54,-0.00180558534339,0.019129306078,2.94763898849, 1520107073.98
0.0,0.0,10.54,-0.00180558534339,0.019129306078,2.94763898849, 1520107074.04
0.0,0.0,10.54,-0.00180558534339,0.019129306078,2.94763898849, 1520107074.09
0.0,0.0,10.54,-0.00180558534339,0.019129306078,2.94763898849, 1520107074.14
0.0,0.0,10.54,-0.00180558534339,0.019129306078,2.94763898849, 1520107074.2
0.0,0.0,10.54,-0.00310583598912,0.0143855167553,2.94615030289, 1520107074.25
0.0,0.0,10.54,-0.00310583598912,0.0143855167553,2.94615030289, 1520107074.3
0.0,0.0,10.54,-0.0041743433103,0.00924647971988,2.944658041, 1520107074.35
0.0,0.0,10.54,-0.0041743433103,0.00924647971988,2.944658041, 1520107074.4
0.0,0.0,10.53,-0.0041743433103,0.00924647971988,2.944658041, 1520107074.46
0.0,0.0,10.53,-0.0041743433103,0.00924647971988,2.944658041, 1520107074.51
0.0,0.0,10.53,-0.0041743433103,0.00924647971988,2.944658041, 1520107074.57
0.0,0.0,10.53,-0.0041743433103,0.00924647971988,2.944658041, 1520107074.62
0.0,0.0,10.53,-0.0041743433103,0.00924647971988,2.944658041, 1520107074.68
0.0,0.0,10.53,-0.0041743433103,0.00924647971988,2.944658041, 1520107074.73
0.0,0.0,10.54,-0.0041743433103,0.00924647971988,2.944658041, 1520107074.78
0.0,0.0,10.54,-0.0030948095955,0.00464423699304,2.94687700272, 1520107074.83
0.0,0.0,10.54,-0.0030948095955,0.00464423699304,2.94687700272, 1520107074.88
0.0,0.0,10.54,-0.0030948095955,0.00464423699304,2.94687700272, 1520107074.94
0.0,0.0,10.54,-0.0030948095955,0.00464423699304,2.94687700272, 1520107074.99
0.0,0.0,10.54,-0.0030948095955,0.00464423699304,2.94687700272, 1520107075.04
0.0,0.0,10.54,-0.0030948095955,0.00464423699304,2.94687700272, 1520107075.1
0.0,0.0,10.54,-0.0030948095955,0.00464423699304,2.94687700272, 1520107075.15
0.0,0.0,10.54,-0.0030948095955,0.00464423699304,2.94687700272, 1520107075.2
0.0,0.0,10.54,-0.0030948095955,0.00464423699304,2.94687700272, 1520107075.25
0.0,0.0,10.57,-0.00941330567002,0.0127035938203,2.94680500031, 1520107075.31
0.0,0.0,10.57,-0.00941330567002,0.0127035938203,2.94680500031, 1520107075.36
0.0,0.0,10.57,-0.0164784751832,0.0179725177586,2.94666934013, 1520107075.41
0.0,0.0,10.57,-0.0164784751832,0.0179725177586,2.94666934013, 1520107075.46
0.0,0.0,10.57,-0.0164784751832,0.0179725177586,2.94666934013, 1520107075.51
0.0,0.0,10.57,-0.0164784751832,0.0179725177586,2.94666934013, 1520107075.57
0.0,0.0,10.55,-0.0164784751832,0.0179725177586,2.94666934013, 1520107075.62
0.0,0.0,10.55,-0.0164784751832,0.0179725177586,2.94666934013, 1520107075.67
0.0,0.0,10.55,-0.0164784751832,0.0179725177586,2.94666934013, 1520107075.72
0.0,0.0,10.55,-0.0164784751832,0.0179725177586,2.94666934013, 1520107075.77
0.0,0.0,10.54,-0.019984010607,0.0119898570701,2.94644117355, 1520107075.82
0.0,0.0,10.54,-0.0225355736911,0.0165019482374,2.9477519989, 1520107075.88
0.0,0.0,10.54,-0.0225355736911,0.0165019482374,2.9477519989, 1520107075.93
0.0,0.0,10.54,-0.0225355736911,0.0165019482374,2.9477519989, 1520107075.98
0.0,0.0,10.54,-0.0225355736911,0.0165019482374,2.9477519989, 1520107076.03
0.0,0.0,10.51,-0.0225355736911,0.0165019482374,2.9477519989, 1520107076.08
0.0,0.0,10.51,-0.0225355736911,0.0165019482374,2.9477519989, 1520107076.14
0.0,0.0,10.51,-0.0225355736911,0.0165019482374,2.9477519989, 1520107076.19
0.0,0.0,10.51,-0.0225355736911,0.0165019482374,2.9477519989, 1520107076.25
0.0,0.0,10.51,-0.0225355736911,0.0165019482374,2.9477519989, 1520107076.3
0.0,0.0,10.51,-0.021345898509,0.0134793231264,2.94791340828, 1520107076.36
0.0,0.0,10.51,-0.021345898509,0.0134793231264,2.94791340828, 1520107076.41
0.0,0.0,10.51,-0.021345898509,0.0134793231264,2.94791340828, 1520107076.46
0.0,0.0,10.51,-0.021345898509,0.0134793231264,2.94791340828, 1520107076.52
0.0,0.0,10.49,-0.021345898509,0.0134793231264,2.94791340828, 1520107076.57
0.0,0.0,10.49,-0.021345898509,0.0134793231264,2.94791340828, 1520107076.63
0.0,0.0,10.49,-0.021345898509,0.0134793231264,2.94791340828, 1520107076.68
0.0,0.0,10.49,-0.021345898509,0.0134793231264,2.94791340828, 1520107076.73
0.0,0.0,10.49,-0.021345898509,0.0134793231264,2.94791340828, 1520107076.79
0.0,0.0,10.47,-0.0295329075307,0.0198058225214,2.94911837578, 1520107076.84
0.0,0.0,10.47,-0.023099232465,0.0190670564771,2.95321202278, 1520107076.89
0.0,0.0,10.47,-0.023099232465,0.0190670564771,2.95321202278, 1520107076.95
0.0,0.0,10.47,-0.023099232465,0.0190670564771,2.95321202278, 1520107077.0
0.0,0.0,10.46,-0.023099232465,0.0190670564771,2.95321202278, 1520107077.06
0.0,0.0,10.46,-0.023099232465,0.0190670564771,2.95321202278, 1520107077.11
0.0,0.0,10.46,-0.023099232465,0.0190670564771,2.95321202278, 1520107077.16
0.0,0.0,10.46,-0.023099232465,0.0190670564771,2.95321202278, 1520107077.21
0.0,0.0,10.46,-0.023099232465,0.0190670564771,2.95321202278, 1520107077.27
0.0,0.0,10.46,-0.023099232465,0.0190670564771,2.95321202278, 1520107077.32
0.0,0.0,10.44,-0.03969598189,0.00695467507467,2.95598721504, 1520107077.37
0.0,0.0,10.44,-0.03969598189,0.00695467507467,2.95598721504, 1520107077.42
0.0,0.0,10.44,-0.03969598189,0.00695467507467,2.95598721504, 1520107077.47
0.0,0.0,10.44,-0.03969598189,0.00695467507467,2.95598721504, 1520107077.53
0.0,0.0,10.44,-0.03969598189,0.00695467507467,2.95598721504, 1520107077.58
0.0,0.0,10.44,-0.03969598189,0.00695467507467,2.95598721504, 1520107077.63
0.0,0.0,10.4,-0.0394143760204,0.00311063835397,2.9564769268, 1520107077.68
0.0,0.0,10.4,-0.0394143760204,0.00311063835397,2.9564769268, 1520107077.74
0.0,0.0,10.35,-0.0394143760204,0.00311063835397,2.9564769268, 1520107077.79
0.0,0.0,10.35,-0.0394143760204,0.00311063835397,2.9564769268, 1520107077.84
0.0,0.0,10.35,-0.0385499186814,-0.00148980133235,2.95731902122, 1520107077.89
0.0,0.0,10.35,-0.0385499186814,-0.00148980133235,2.95731902122, 1520107077.95
0.0,0.0,10.35,-0.0385499186814,-0.00148980133235,2.95731902122, 1520107078.0
0.0,0.0,10.35,-0.0385499186814,-0.00148980133235,2.95731902122, 1520107078.06
0.0,0.0,10.35,-0.0385499186814,-0.00148980133235,2.95731902122, 1520107078.11
0.0,0.0,10.35,-0.0385499186814,-0.00148980133235,2.95731902122, 1520107078.16
0.0,0.0,10.32,-0.0463201850653,-0.000590692739934,2.95719122887, 1520107078.21
0.0,0.0,10.3,-0.0463201850653,-0.000590692739934,2.95719122887, 1520107078.26
0.0,0.0,10.3,-0.0463201850653,-0.000590692739934,2.95719122887, 1520107078.31
0.0,0.0,10.3,-0.0510572232306,-0.0011998238042,2.95756959915, 1520107078.37
0.0,0.0,10.3,-0.0510572232306,-0.0011998238042,2.95756959915, 1520107078.42
0.0,0.0,10.3,-0.0510572232306,-0.0011998238042,2.95756959915, 1520107078.47
0.0,0.0,10.3,-0.0510572232306,-0.0011998238042,2.95756959915, 1520107078.52
0.0,0.0,10.3,-0.0510572232306,-0.0011998238042,2.95756959915, 1520107078.58
0.0,0.0,10.3,-0.0510572232306,-0.0011998238042,2.95756959915, 1520107078.63
0.0,0.0,10.3,-0.0510572232306,-0.0011998238042,2.95756959915, 1520107078.68
0.0,0.0,10.3,-0.0510572232306,-0.0011998238042,2.95756959915, 1520107078.73
0.0,0.0,10.3,-0.0510572232306,-0.0011998238042,2.95756959915, 1520107078.79
0.0,0.0,10.3,-0.0510572232306,-0.0011998238042,2.95756959915, 1520107078.84
0.0,0.0,10.3,-0.0612499527633,0.017641056329,2.96079730988, 1520107078.9
0.0,0.0,10.3,-0.0612499527633,0.017641056329,2.96079730988, 1520107078.95
0.0,0.0,10.3,-0.0612499527633,0.017641056329,2.96079730988, 1520107079.01
0.0,0.0,10.3,-0.0612499527633,0.017641056329,2.96079730988, 1520107079.06
0.0,0.0,10.3,-0.0612499527633,0.017641056329,2.96079730988, 1520107079.11
0.0,0.0,10.3,-0.0612499527633,0.017641056329,2.96079730988, 1520107079.16
0.0,0.0,10.3,-0.0612499527633,0.017641056329,2.96079730988, 1520107079.22
0.0,0.0,10.3,-0.0612499527633,0.017641056329,2.96079730988, 1520107079.27
0.0,0.0,10.3,-0.0612499527633,0.017641056329,2.96079730988, 1520107079.32
0.0,0.0,10.3,-0.0612499527633,0.017641056329,2.96079730988, 1520107079.37
0.0,0.0,10.27,-0.0681020468473,0.0244539640844,2.9640750885, 1520107079.43
0.0,0.0,10.27,-0.0681020468473,0.0244539640844,2.9640750885, 1520107079.48
0.0,0.0,10.27,-0.0681020468473,0.0244539640844,2.9640750885, 1520107079.53
0.0,0.0,10.27,-0.0681020468473,0.0244539640844,2.9640750885, 1520107079.58
0.0,0.0,10.27,-0.0681020468473,0.0244539640844,2.9640750885, 1520107079.63
0.0,0.0,10.27,-0.0681020468473,0.0244539640844,2.9640750885, 1520107079.69
0.0,0.0,10.27,-0.0681020468473,0.0244539640844,2.9640750885, 1520107079.74
0.0,0.0,10.26,-0.0608789846301,0.0145287383348,2.96693944931, 1520107079.79
0.0,0.0,10.26,-0.0608789846301,0.0145287383348,2.96693944931, 1520107079.85
0.0,0.0,10.26,-0.0608789846301,0.0145287383348,2.96693944931, 1520107079.9
0.0,0.0,10.26,-0.0608789846301,0.0145287383348,2.96693944931, 1520107079.96
0.0,0.0,10.26,-0.0592950880527,0.0111561995,2.96914696693, 1520107080.01
0.0,0.0,10.26,-0.0592950880527,0.0111561995,2.96914696693, 1520107080.06
0.0,0.0,10.26,-0.0592950880527,0.0111561995,2.96914696693, 1520107080.11
0.0,0.0,10.26,-0.0592950880527,0.0111561995,2.96914696693, 1520107080.16
0.0,0.0,10.26,-0.0592950880527,0.0111561995,2.96914696693, 1520107080.21
0.0,0.0,10.26,-0.0592950880527,0.0111561995,2.96914696693, 1520107080.26
0.0,0.0,10.28,-0.0629834756255,0.00656865211204,2.97163891792, 1520107080.31
0.0,0.0,10.28,-0.0629834756255,0.00656865211204,2.97163891792, 1520107080.37
0.0,0.0,10.28,-0.0629834756255,0.00656865211204,2.97163891792, 1520107080.42
0.0,0.0,10.28,-0.0626885890961,0.00619314610958,2.973123312, 1520107080.47
0.0,0.0,10.28,-0.0626885890961,0.00619314610958,2.973123312, 1520107080.53
0.0,0.0,10.31,-0.0626885890961,0.00619314610958,2.973123312, 1520107080.58
0.0,0.0,10.31,-0.0626885890961,0.00619314610958,2.973123312, 1520107080.63
0.0,0.0,10.31,-0.0626885890961,0.00619314610958,2.973123312, 1520107080.68
0.0,0.0,10.31,-0.0626885890961,0.00619314610958,2.973123312, 1520107080.73
0.0,0.0,10.31,-0.0612118914723,0.00927066244185,2.974421978, 1520107080.78
0.0,0.0,10.31,-0.0612118914723,0.00927066244185,2.974421978, 1520107080.83
0.0,0.0,10.32,-0.0612118914723,0.00927066244185,2.974421978, 1520107080.89
0.0,0.0,10.32,-0.060982093215,0.0117360521108,2.97467160225, 1520107080.94
0.0,0.0,10.32,-0.060982093215,0.0117360521108,2.97467160225, 1520107081.0
0.0,0.0,10.33,-0.060982093215,0.0117360521108,2.97467160225, 1520107081.05
0.0,0.0,10.33,-0.060982093215,0.0117360521108,2.97467160225, 1520107081.1
0.0,0.0,10.33,-0.060982093215,0.0117360521108,2.97467160225, 1520107081.16
0.0,0.0,10.33,-0.060982093215,0.0117360521108,2.97467160225, 1520107081.21
0.0,0.0,10.33,-0.060982093215,0.0117360521108,2.97467160225, 1520107081.26
0.0,0.0,10.33,-0.0613051839173,0.00929260347039,2.97480368614, 1520107081.31
0.0,0.0,10.35,-0.0613051839173,0.00929260347039,2.97480368614, 1520107081.37
0.0,0.0,10.35,-0.0613051839173,0.00929260347039,2.97480368614, 1520107081.42
0.0,0.0,10.35,-0.0571131296456,0.00157089158893,2.97616457939, 1520107081.47
0.0,0.0,10.35,-0.0571131296456,0.00157089158893,2.97616457939, 1520107081.52
0.0,0.0,10.36,-0.0571131296456,0.00157089158893,2.97616457939, 1520107081.58
0.0,0.0,10.36,-0.0571131296456,0.00157089158893,2.97616457939, 1520107081.63
0.0,0.0,10.36,-0.0571131296456,0.00157089158893,2.97616457939, 1520107081.69
0.0,0.0,10.36,-0.0571131296456,0.00157089158893,2.97616457939, 1520107081.74
0.0,0.0,10.36,-0.0571131296456,0.00157089158893,2.97616457939, 1520107081.8
0.0,0.0,10.36,-0.0616673491895,-0.000922336243093,2.97510075569, 1520107081.85
0.0,0.0,10.36,-0.0616673491895,-0.000922336243093,2.97510075569, 1520107081.9
0.0,0.0,10.36,-0.070275478065,0.000479174777865,2.97530984879, 1520107081.96
0.0,0.0,10.36,-0.070275478065,0.000479174777865,2.97530984879, 1520107082.01
0.0,0.0,10.35,-0.070275478065,0.000479174777865,2.97530984879, 1520107082.06
0.0,0.0,10.35,-0.070275478065,0.000479174777865,2.97530984879, 1520107082.12
0.0,0.0,10.35,-0.070275478065,0.000479174777865,2.97530984879, 1520107082.17
0.0,0.0,10.35,-0.070275478065,0.000479174777865,2.97530984879, 1520107082.22
0.0,0.0,10.35,-0.070275478065,0.000479174777865,2.97530984879, 1520107082.27
0.0,0.0,10.35,-0.070275478065,0.000479174777865,2.97530984879, 1520107082.33
0.0,0.0,10.35,-0.070275478065,0.000479174777865,2.97530984879, 1520107082.38
0.0,0.0,10.32,-0.0721149072051,0.00189086887985,2.97850513458, 1520107082.43
0.0,0.0,10.32,-0.0699412375689,0.00298683950678,2.97731423378, 1520107082.48
0.0,0.0,10.32,-0.0699412375689,0.00298683950678,2.97731423378, 1520107082.53
0.0,0.0,10.3,-0.0699412375689,0.00298683950678,2.97731423378, 1520107082.59
0.0,0.0,10.3,-0.0699412375689,0.00298683950678,2.97731423378, 1520107082.64
0.0,0.0,10.3,-0.0689736679196,0.00241298647597,2.97740936279, 1520107082.69
0.0,0.0,10.3,-0.0689736679196,0.00241298647597,2.97740936279, 1520107082.75
0.0,0.0,10.3,-0.0689736679196,0.00241298647597,2.97740936279, 1520107082.8
0.0,0.0,10.3,-0.0689736679196,0.00241298647597,2.97740936279, 1520107082.85
0.0,0.0,10.29,-0.069118231535,0.00270873494446,2.97858977318, 1520107082.9
0.0,0.0,10.29,-0.069118231535,0.00270873494446,2.97858977318, 1520107082.96
0.0,0.0,10.29,-0.069118231535,0.00270873494446,2.97858977318, 1520107083.01
0.0,0.0,10.29,-0.069118231535,0.00270873494446,2.97858977318, 1520107083.07
0.0,0.0,10.26,-0.069118231535,0.00270873494446,2.97858977318, 1520107083.12
0.0,0.0,10.26,-0.069118231535,0.00270873494446,2.97858977318, 1520107083.17
0.0,0.0,10.26,-0.0679160058498,0.000240379478782,2.97738862038, 1520107083.22
0.0,0.0,10.26,-0.0679160058498,0.000240379478782,2.97738862038, 1520107083.28
0.0,0.0,10.26,-0.0679160058498,0.000240379478782,2.97738862038, 1520107083.33
0.0,0.0,10.26,-0.0679160058498,0.000240379478782,2.97738862038, 1520107083.38
0.0,0.0,10.25,-0.0720831826329,-0.00280881207436,2.97821545601, 1520107083.43
0.0,0.0,10.25,-0.0720831826329,-0.00280881207436,2.97821545601, 1520107083.49
0.0,0.0,10.25,-0.0720831826329,-0.00280881207436,2.97821545601, 1520107083.54
